{"type":"FeatureCollection","features":[{"type": "Feature", "geometry": {"type": "Point", "coordinates": [1.449318017941393, 43.60007786245958]}, "properties": {"commune": "Toulouse", "num_station": 24, "nb_bornettes": 20, "no": "14", "m_en_s_16_nov_07": "2007", "geo_point_2d": [43.60007786245958, 1.449318017941393], "mot_directeur": "ETIENNE (PL SAINT ETIENNE)", "street": "PL SAINT ETIENNE", "code_insee": "31555", "en_service": "oui", "nom": "PLACE SAINT ETIENNE", "nrivoli": "3105557756", "locations_2016": 23228}},{"type": "Feature", "geometry": {"type": "Point", "coordinates": [1.447129091191995, 43.596285788668276]}, "properties": {"commune": "Toulouse", "num_station": 45, "nb_bornettes": 19, "no": "10", "m_en_s_16_nov_07": "2007", "geo_point_2d": [43.596285788668276, 1.447129091191995], "mot_directeur": "OZENNE (RUE THEODORE OZENNE)", "street": "RUE THEODORE OZENNE", "code_insee": "31555", "en_service": "oui", "nom": "OZENNE - NAZARETH", "nrivoli": "3105556448", "locations_2016": 25064}},{"type": "Feature", "geometry": {"type": "Point", "coordinates": [1.429467488283193, 43.59989330966812]}, "properties": {"commune": "Toulouse", "num_station": 81, "nb_bornettes": 33, "no": "76", "m_en_s_16_nov_07": "2008", "geo_point_2d": [43.59989330966812, 1.429467488283193], "mot_directeur": "FITTE (ALL CHARLES DE FITTE)", "street": "ALL CHARLES DE FITTE", "code_insee": "31555", "en_service": "oui", "nom": "JARDIN RAYMOND VI", "nrivoli": "3105551920", "locations_2016": 18722}},{"type": "Feature", "geometry": {"type": "Point", "coordinates": [1.438073489198071, 43.61126230080942]}, "properties": {"commune": "Toulouse", "num_station": 90, "nb_bornettes": 26, "no": "3B", "m_en_s_16_nov_07": "2007", "geo_point_2d": [43.61126230080942, 1.438073489198071], "mot_directeur": "LASCROSSES (BD LASCROSSES)", "street": "BD LASCROSSES", "code_insee": "31555", "en_service": "oui", "nom": "LASCROSSES -  PLACE ARNAUD BERNARD", "nrivoli": "3105555080", "locations_2016": 26118}},{"type": "Feature", "geometry": {"type": "Point", "coordinates": [1.454253164796721, 43.60744775641957]}, "properties": {"commune": "Toulouse", "num_station": 63, "nb_bornettes": 22, "no": "54", "m_en_s_16_nov_07": "2008", "geo_point_2d": [43.60744775641957, 1.454253164796721], "mot_directeur": "TROUBADOURS (RUE DES SEPT TROUBADOURS)", "street": "RUE DES SEPT TROUBADOURS", "code_insee": "31555", "en_service": "oui", "nom": "PISCINE LEO LAGRANGE", "nrivoli": "3105558224", "locations_2016": 22191}},{"type": "Feature", "geometry": {"type": "Point", "coordinates": [1.452835599345174, 43.605819067453226]}, "properties": {"commune": "Toulouse", "num_station": 39, "nb_bornettes": 19, "no": "2", "m_en_s_16_nov_07": "2008", "geo_point_2d": [43.605819067453226, 1.452835599345174], "mot_directeur": "DAMLOUP (PL DE DAMLOUP)", "street": "PL DE DAMLOUP", "code_insee": "31555", "en_service": "oui", "nom": "PLACE DE DAMLOUP", "nrivoli": "3105552480", "locations_2016": 25408}},{"type": "Feature", "geometry": {"type": "Point", "coordinates": [1.434029455745734, 43.62706244089124]}, "properties": {"commune": "Toulouse", "num_station": 125, "nb_bornettes": 20, "no": "00", "m_en_s_16_nov_07": "2008", "geo_point_2d": [43.62706244089124, 1.434029455745734], "mot_directeur": "PARIS (BRE DE PARIS)", "street": "BRE DE PARIS", "code_insee": "31555", "en_service": "oui", "nom": "BARRIERE DE PARIS", "nrivoli": "310555B279", "locations_2016": 16780}},{"type": "Feature", "geometry": {"type": "Point", "coordinates": [1.459849505196883, 43.587638784777816]}, "properties": {"commune": "Toulouse", "num_station": 98, "nb_bornettes": 20, "no": "80", "m_en_s_16_nov_07": "2008", "geo_point_2d": [43.587638784777816, 1.459849505196883], "mot_directeur": "DEMOISELLES (ALL DES DEMOISELLES)", "street": "ALL DES DEMOISELLES", "code_insee": "31555", "en_service": "oui", "nom": "PONT DES DEMOISELLES", "nrivoli": "3105552584", "locations_2016": 24582}},{"type": "Feature", "geometry": {"type": "Point", "coordinates": [1.449528282070613, 43.60467810271876]}, "properties": {"commune": "Toulouse", "num_station": 20, "nb_bornettes": 27, "no": "69", "m_en_s_16_nov_07": "2007", "geo_point_2d": [43.60467810271876, 1.449528282070613], "mot_directeur": "CARNOT (BD LAZARE CARNOT)", "street": "BD LAZARE CARNOT", "code_insee": "31555", "en_service": "oui", "nom": "CARNOT -  TROIS JOURNEES", "nrivoli": "3105555132", "locations_2016": 26414}},{"type": "Feature", "geometry": {"type": "Point", "coordinates": [1.43140332849084, 43.59813198330841]}, "properties": {"commune": "Toulouse", "num_station": 78, "nb_bornettes": 17, "no": "14", "m_en_s_16_nov_07": "2008", "geo_point_2d": [43.59813198330841, 1.43140332849084], "mot_directeur": "CYPRIEN (PL INTERIEURE ST CYPRIEN)", "street": "PL INTERIEURE ST CYPRIEN", "code_insee": "31555", "en_service": "oui", "nom": "PLACE INT ST CYPRIEN DARRE", "nrivoli": "3105554336", "locations_2016": 38713}},{"type": "Feature", "geometry": {"type": "Point", "coordinates": [1.455607575263944, 43.59662270925102]}, "properties": {"commune": "Toulouse", "num_station": 100, "nb_bornettes": 19, "no": "16", "m_en_s_16_nov_07": "2008", "geo_point_2d": [43.59662270925102, 1.455607575263944], "mot_directeur": "SABATIER (ALL PAUL SABATIER)", "street": "ALL PAUL SABATIER", "code_insee": "31555", "en_service": "oui", "nom": "SABATIER - PORT ST SAUVEUR", "nrivoli": "3105556644", "locations_2016": 20947}},{"type": "Feature", "geometry": {"type": "Point", "coordinates": [1.42860286855771, 43.608009935378085]}, "properties": {"commune": "Toulouse", "num_station": 86, "nb_bornettes": 18, "no": "23", "m_en_s_16_nov_07": "2007", "geo_point_2d": [43.608009935378085, 1.42860286855771], "mot_directeur": "BEARNAIS (RUE DU BEARNAIS)", "street": "RUE DU BEARNAIS", "code_insee": "31555", "en_service": "oui", "nom": "HERACLES - BEARNAIS", "nrivoli": "3105550948", "locations_2016": 23761}},{"type": "Feature", "geometry": {"type": "Point", "coordinates": [1.4530070197967, 43.608896190746115]}, "properties": {"commune": "Toulouse", "num_station": 62, "nb_bornettes": 23, "no": "71T", "m_en_s_16_nov_07": "2008", "geo_point_2d": [43.608896190746115, 1.4530070197967], "mot_directeur": "JAURES (ALL JEAN JAURES)", "street": "ALL JEAN JAURES", "code_insee": "31555", "en_service": "oui", "nom": "JAURES  -  STALINGRAD", "nrivoli": "3105554600", "locations_2016": 9358}},{"type": "Feature", "geometry": {"type": "Point", "coordinates": [1.430401291118368, 43.60959017035665]}, "properties": {"commune": "Toulouse", "num_station": 107, "nb_bornettes": 25, "no": "1", "m_en_s_16_nov_07": "2008", "geo_point_2d": [43.60959017035665, 1.430401291118368], "mot_directeur": "SEBASTOPOL (RUE DE SEBASTOPOL)", "street": "RUE DE SEBASTOPOL", "code_insee": "31555", "en_service": "oui", "nom": "SEBASTOPOL - LASCROSSES", "nrivoli": "3105558204", "locations_2016": 29081}},{"type": "Feature", "geometry": {"type": "Point", "coordinates": [1.434492559117631, 43.605618671087626]}, "properties": {"commune": "Toulouse", "num_station": 51, "nb_bornettes": 18, "no": "1", "m_en_s_16_nov_07": "2007", "geo_point_2d": [43.605618671087626, 1.434492559117631], "mot_directeur": "DUPORTAL (BD ARMAND DUPORTAL)", "street": "BD ARMAND DUPORTAL", "code_insee": "31555", "en_service": "oui", "nom": "DUPORTAL - CANAL DE BRIENNE", "nrivoli": "3105550492", "locations_2016": 27068}},{"type": "Feature", "geometry": {"type": "Point", "coordinates": [1.426219958441036, 43.59691500234311]}, "properties": {"commune": "Toulouse", "num_station": 117, "nb_bornettes": 17, "no": "39", "m_en_s_16_nov_07": "2008", "geo_point_2d": [43.59691500234311, 1.426219958441036], "mot_directeur": "BILLIERES (AV ETIENNE BILLIERES)", "street": "AV ETIENNE BILLIERES", "code_insee": "31555", "en_service": "oui", "nom": "BILLIERES - POSTE", "nrivoli": "3105553116", "locations_2016": 11507}},{"type": "Feature", "geometry": {"type": "Point", "coordinates": [1.454267426571888, 43.61695976203266]}, "properties": {"commune": "Toulouse", "num_station": 126, "nb_bornettes": 20, "no": "18", "m_en_s_16_nov_07": "2008", "geo_point_2d": [43.61695976203266, 1.454267426571888], "mot_directeur": "BONNEFOY (RUE DU FAUBOURG BONNEFOY)", "street": "RUE DU FAUBOURG BONNEFOY", "code_insee": "31555", "en_service": "oui", "nom": "ECOLE BONNEFOY", "nrivoli": "3105553204", "locations_2016": 26110}},{"type": "Feature", "geometry": {"type": "Point", "coordinates": [1.451711272893721, 43.607481510816584]}, "properties": {"commune": "Toulouse", "num_station": 38, "nb_bornettes": 20, "no": "60", "m_en_s_16_nov_07": "2008", "geo_point_2d": [43.607481510816584, 1.451711272893721], "mot_directeur": "JAURES (ALL JEAN JAURES)", "street": "ALL JEAN JAURES", "code_insee": "31555", "en_service": "oui", "nom": "JAURES -  BACHELIER", "nrivoli": "3105554600", "locations_2016": 20931}},{"type": "Feature", "geometry": {"type": "Point", "coordinates": [1.434450428744692, 43.622974449488865]}, "properties": {"commune": "Toulouse", "num_station": 132, "nb_bornettes": 15, "no": "101", "m_en_s_16_nov_07": "2008", "geo_point_2d": [43.622974449488865, 1.434450428744692], "mot_directeur": "MINIMES (AV DES MINIMES)", "street": "AV DES MINIMES", "code_insee": "31555", "en_service": "oui", "nom": "MINIMES - BAQUE", "nrivoli": "3105555956", "locations_2016": 9271}},{"type": "Feature", "geometry": {"type": "Point", "coordinates": [1.424304274606457, 43.5967115558939]}, "properties": {"commune": "Toulouse", "num_station": 130, "nb_bornettes": 16, "no": "66T", "m_en_s_16_nov_07": "2008", "geo_point_2d": [43.5967115558939, 1.424304274606457], "mot_directeur": "BILLIERES (AV ETIENNE BILLIERES)", "street": "AV ETIENNE BILLIERES", "code_insee": "31555", "en_service": "oui", "nom": "BILLIERES -  PATTE D OIE", "nrivoli": "3105553116", "locations_2016": 21237}},{"type": "Feature", "geometry": {"type": "Point", "coordinates": [1.449079455754988, 43.592326119405904]}, "properties": {"commune": "Toulouse", "num_station": 113, "nb_bornettes": 20, "no": "58", "m_en_s_16_nov_07": "2008", "geo_point_2d": [43.592326119405904, 1.449079455754988], "mot_directeur": "DUMERIL (RUE ALFRED DUMERIL)", "street": "RUE ALFRED DUMERIL", "code_insee": "31555", "en_service": "oui", "nom": "MUSEUM  -  DUMERIL", "nrivoli": "3105550184", "locations_2016": 23970}},{"type": "Feature", "geometry": {"type": "Point", "coordinates": [1.457928095207076, 43.59244416979375]}, "properties": {"commune": "Toulouse", "num_station": 114, "nb_bornettes": 20, "no": "8", "m_en_s_16_nov_07": "2008", "geo_point_2d": [43.59244416979375, 1.457928095207076], "mot_directeur": "MONPLAISIR (BD MONPLAISIR)", "street": "BD MONPLAISIR", "code_insee": "31555", "en_service": "oui", "nom": "BD MONTPLAISIR -  CANAL", "nrivoli": "3105556016", "locations_2016": 15374}},{"type": "Feature", "geometry": {"type": "Point", "coordinates": [1.445293420115391, 43.590593996540946]}, "properties": {"commune": "Toulouse", "num_station": 103, "nb_bornettes": 20, "no": "139", "m_en_s_16_nov_07": "2008", "geo_point_2d": [43.590593996540946, 1.445293420115391], "mot_directeur": "MICHEL (GRANDE-RUE SAINT MICHEL)", "street": "GRANDE-RUE SAINT MICHEL", "code_insee": "31555", "en_service": "oui", "nom": "ST MICHEL - STE CATHERINE", "nrivoli": "3105557916", "locations_2016": 24536}},{"type": "Feature", "geometry": {"type": "Point", "coordinates": [1.453015551550502, 43.58542148650607]}, "properties": {"commune": "Toulouse", "num_station": 112, "nb_bornettes": 18, "no": "47", "m_en_s_16_nov_07": "2008", "geo_point_2d": [43.58542148650607, 1.453015551550502], "mot_directeur": "BRANLY (ALL EDOUARD BRANLY)", "street": "ALL EDOUARD BRANLY", "code_insee": "31555", "en_service": "oui", "nom": "PLACE RUSSEL -  BRANLY", "nrivoli": "3105552896", "locations_2016": 16325}},{"type": "Feature", "geometry": {"type": "Point", "coordinates": [1.432193516586127, 43.58994543847627]}, "properties": {"commune": "Toulouse", "num_station": 104, "nb_bornettes": 20, "no": "223B", "m_en_s_16_nov_07": "2008", "geo_point_2d": [43.58994543847627, 1.432193516586127], "mot_directeur": "MURET (AV DE MURET)", "street": "AV DE MURET", "code_insee": "31555", "en_service": "oui", "nom": "MURET -  BARTHERE", "nrivoli": "3105556160", "locations_2016": 15339}},{"type": "Feature", "geometry": {"type": "Point", "coordinates": [1.438043268300888, 43.614227786727334]}, "properties": {"commune": "Toulouse", "num_station": 110, "nb_bornettes": 18, "no": "16", "m_en_s_16_nov_07": "2008", "geo_point_2d": [43.614227786727334, 1.438043268300888], "mot_directeur": "CABANEL (RUE ALEXANDRE CABANEL)", "street": "RUE ALEXANDRE CABANEL", "code_insee": "31555", "en_service": "oui", "nom": "SERRES -  CABANEL", "nrivoli": "3105550148", "locations_2016": 12388}},{"type": "Feature", "geometry": {"type": "Point", "coordinates": [1.425537128903929, 43.602317841402375]}, "properties": {"commune": "Toulouse", "num_station": 95, "nb_bornettes": 20, "no": "4", "m_en_s_16_nov_07": "2008", "geo_point_2d": [43.602317841402375, 1.425537128903929], "mot_directeur": "EAU (AV DU CHATEAU D EAU)", "street": "AV DU CHATEAU D EAU", "code_insee": "31555", "en_service": "oui", "nom": "THEATRE GARONNE", "nrivoli": "3105551976", "locations_2016": 15859}},{"type": "Feature", "geometry": {"type": "Point", "coordinates": [1.428363742120968, 43.615602620030835]}, "properties": {"commune": "Toulouse", "num_station": 146, "nb_bornettes": 20, "no": "57", "m_en_s_16_nov_07": "2008", "geo_point_2d": [43.615602620030835, 1.428363742120968], "mot_directeur": "SERP (CHE DU SANG DE SERP)", "street": "CHE DU SANG DE SERP", "code_insee": "31555", "en_service": "oui", "nom": "SANG DE SERP DAGNAUX", "nrivoli": "3105558132", "locations_2016": 12088}},{"type": "Feature", "geometry": {"type": "Point", "coordinates": [1.443119097429021, 43.62462226453625]}, "properties": {"commune": "Toulouse", "num_station": 151, "nb_bornettes": 20, "no": "27", "m_en_s_16_nov_07": "2008", "geo_point_2d": [43.62462226453625, 1.443119097429021], "mot_directeur": "CURIE (BD PIERRE ET MARIE CURIE)", "street": "BD PIERRE ET MARIE CURIE", "code_insee": "31555", "en_service": "oui", "nom": "CURIE NEGRENEYS", "nrivoli": "3105556880", "locations_2016": 10087}},{"type": "Feature", "geometry": {"type": "Point", "coordinates": [1.438482394954704, 43.624133320615066]}, "properties": {"commune": "Toulouse", "num_station": 152, "nb_bornettes": 20, "no": "10", "m_en_s_16_nov_07": "2008", "geo_point_2d": [43.624133320615066, 1.438482394954704], "mot_directeur": "MAZADES (AV DES MAZADES)", "street": "AV DES MAZADES", "code_insee": "31555", "en_service": "oui", "nom": "THEATRE DES MAZADES", "nrivoli": "3105555848", "locations_2016": 6302}},{"type": "Feature", "geometry": {"type": "Point", "coordinates": [1.44858154177121, 43.61539654660261]}, "properties": {"commune": "Toulouse", "num_station": 149, "nb_bornettes": 22, "no": "2", "m_en_s_16_nov_07": "2008", "geo_point_2d": [43.61539654660261, 1.44858154177121], "mot_directeur": "RAISIN (CHE DU RAISIN)", "street": "CHE DU RAISIN", "code_insee": "31555", "en_service": "oui", "nom": "RAISIN", "nrivoli": "3105557248", "locations_2016": 18207}},{"type": "Feature", "geometry": {"type": "Point", "coordinates": [1.460014517407889, 43.57976676688256]}, "properties": {"commune": "Toulouse", "num_station": 164, "nb_bornettes": 20, "no": "77", "m_en_s_16_nov_07": "2008", "geo_point_2d": [43.57976676688256, 1.460014517407889], "mot_directeur": "BEDOUCE (AV ALBERT BEDOUCE)", "street": "AV ALBERT BEDOUCE", "code_insee": "31555", "en_service": "oui", "nom": "METRO SAOUZELONG", "nrivoli": "3105550112", "locations_2016": 8985}},{"type": "Feature", "geometry": {"type": "Point", "coordinates": [1.462420175988542, 43.581572470701246]}, "properties": {"commune": "Toulouse", "num_station": 163, "nb_bornettes": 20, "no": "115", "m_en_s_16_nov_07": "2008", "geo_point_2d": [43.581572470701246, 1.462420175988542], "mot_directeur": "BEDOUCE (AV ALBERT BEDOUCE)", "street": "AV ALBERT BEDOUCE", "code_insee": "31555", "en_service": "oui", "nom": "BEDOUCE CANAL DU MIDI", "nrivoli": "3105550112", "locations_2016": 12826}},{"type": "Feature", "geometry": {"type": "Point", "coordinates": [1.458774247384103, 43.62658653572091]}, "properties": {"commune": "Toulouse", "num_station": 168, "nb_bornettes": 15, "no": "1", "m_en_s_16_nov_07": "2008", "geo_point_2d": [43.62658653572091, 1.458774247384103], "mot_directeur": "BILA (PL BILA)", "street": "PL BILA", "code_insee": "31555", "en_service": "oui", "nom": "BILA", "nrivoli": "3105551168", "locations_2016": 5812}},{"type": "Feature", "geometry": {"type": "Point", "coordinates": [1.448199767632988, 43.62857411176401]}, "properties": {"commune": "Toulouse", "num_station": 153, "nb_bornettes": 18, "no": "9", "m_en_s_16_nov_07": "2008", "geo_point_2d": [43.62857411176401, 1.448199767632988], "mot_directeur": "MAUNOURY (AV MAURICE BOURGES MAUNOURY)", "street": "AV MAURICE BOURGES MAUNOURY", "code_insee": "31555", "en_service": "oui", "nom": "MAUNOURY PISAN", "nrivoli": "3105555789", "locations_2016": 6829}},{"type": "Feature", "geometry": {"type": "Point", "coordinates": [1.456799440355592, 43.611324675199185]}, "properties": {"commune": "Toulouse", "num_station": 5, "nb_bornettes": 19, "no": "5", "m_en_s_16_nov_07": "2008", "geo_point_2d": [43.611324675199185, 1.456799440355592], "mot_directeur": "LEDUC (RUE RENE LEDUC)", "street": "RUE RENE LEDUC", "code_insee": "31555", "en_service": "oui", "nom": "LEDUC", "nrivoli": "3105557413", "locations_2016": 24420}},{"type": "Feature", "geometry": {"type": "Point", "coordinates": [1.458049869956853, 43.60684128936947]}, "properties": {"commune": "Toulouse", "num_station": 176, "nb_bornettes": 18, "no": "1", "m_en_s_16_nov_07": "2008", "geo_point_2d": [43.60684128936947, 1.458049869956853], "mot_directeur": "COMPANS (RUE DU GEN JEAN COMPANS)", "street": "RUE DU GEN JEAN COMPANS", "code_insee": "31555", "en_service": "oui", "nom": "GENERAL COMPANS", "nrivoli": "3105552250", "locations_2016": 13172}},{"type": "Feature", "geometry": {"type": "Point", "coordinates": [1.477547126240095, 43.61222985301434]}, "properties": {"commune": "Toulouse", "num_station": 180, "nb_bornettes": 15, "no": "3", "m_en_s_16_nov_07": "2008", "geo_point_2d": [43.61222985301434, 1.477547126240095], "mot_directeur": "SOUPETARD (PL DE SOUPETARD)", "street": "PL DE SOUPETARD", "code_insee": "31555", "en_service": "oui", "nom": "PLACE SOUPETARD", "nrivoli": "3105558300", "locations_2016": 4458}},{"type": "Feature", "geometry": {"type": "Point", "coordinates": [1.479956382451087, 43.60925338434415]}, "properties": {"commune": "Toulouse", "num_station": 181, "nb_bornettes": 15, "no": "27", "m_en_s_16_nov_07": "2008", "geo_point_2d": [43.60925338434415, 1.479956382451087], "mot_directeur": "PLANA (RUE LOUIS PLANA)", "street": "RUE LOUIS PLANA", "code_insee": "31555", "en_service": "oui", "nom": "PLANA GARNIER", "nrivoli": "3105555396", "locations_2016": 3030}},{"type": "Feature", "geometry": {"type": "Point", "coordinates": [1.415706813175606, 43.58457642584108]}, "properties": {"commune": "Toulouse", "num_station": 187, "nb_bornettes": 15, "no": "187", "m_en_s_16_nov_07": "2008", "geo_point_2d": [43.58457642584108, 1.415706813175606], "mot_directeur": "DESBALS (RUE HENRI DESBALS)", "street": "RUE HENRI DESBALS", "code_insee": "31555", "en_service": "oui", "nom": "DESBALS MONT DORE", "nrivoli": "3105554140", "locations_2016": 4897}},{"type": "Feature", "geometry": {"type": "Point", "coordinates": [1.415202098440148, 43.59001813459135]}, "properties": {"commune": "Toulouse", "num_station": 191, "nb_bornettes": 20, "no": "395", "m_en_s_16_nov_07": "2008", "geo_point_2d": [43.59001813459135, 1.415202098440148], "mot_directeur": "SIMON (RTE DE SAINT SIMON)", "street": "RTE DE SAINT SIMON", "code_insee": "31555", "en_service": "oui", "nom": "ST SIMON QUATORZE JUILLET", "nrivoli": "3105557988", "locations_2016": 8230}},{"type": "Feature", "geometry": {"type": "Point", "coordinates": [1.465458913452782, 43.61521779676601]}, "properties": {"commune": "Toulouse", "num_station": 212, "nb_bornettes": 17, "no": "0", "m_en_s_16_nov_07": "2008", "geo_point_2d": [43.61521779676601, 1.465458913452782], "mot_directeur": "CHAUMIERE (RUE DE LA CHAUMIERE)", "street": "RUE DE LA CHAUMIERE", "code_insee": "31555", "en_service": "oui", "nom": "CRETES CHAUMIERES", "nrivoli": "3105551989", "locations_2016": 1189}},{"type": "Feature", "geometry": {"type": "Point", "coordinates": [1.474042588885385, 43.6227619027018]}, "properties": {"commune": "Toulouse", "num_station": 216, "nb_bornettes": 18, "no": "3", "m_en_s_16_nov_07": "2008", "geo_point_2d": [43.6227619027018, 1.474042588885385], "mot_directeur": "HOUDON (RUE JEAN HOUDON)", "street": "RUE JEAN HOUDON", "code_insee": "31555", "en_service": "oui", "nom": "ARGOULETS HOUDON", "nrivoli": "3105554592", "locations_2016": 1695}},{"type": "Feature", "geometry": {"type": "Point", "coordinates": [1.411210899567453, 43.61456569400828]}, "properties": {"commune": "Toulouse", "num_station": 219, "nb_bornettes": 18, "no": "35", "m_en_s_16_nov_07": "2008", "geo_point_2d": [43.61456569400828, 1.411210899567453], "mot_directeur": "PUCCINI (RUE GIACOMO PUCCINI)", "street": "RUE GIACOMO PUCCINI", "code_insee": "31555", "en_service": "oui", "nom": "PUCCINI BLAGNAC", "nrivoli": "3105553888", "locations_2016": 4778}},{"type": "Feature", "geometry": {"type": "Point", "coordinates": [1.402137041306263, 43.57457115709285]}, "properties": {"commune": "Toulouse", "num_station": 220, "nb_bornettes": 20, "no": "3", "m_en_s_16_nov_07": "2008", "geo_point_2d": [43.57457115709285, 1.402137041306263], "mot_directeur": "MIRAIL (RUE UNIVERSITE DU MIRAIL)", "street": "RUE UNIVERSITE DU MIRAIL", "code_insee": "31555", "en_service": "oui", "nom": "TABAR UNIVERSITE", "nrivoli": "3105558666", "locations_2016": 4645}},{"type": "Feature", "geometry": {"type": "Point", "coordinates": [1.406663585745594, 43.576443693078694]}, "properties": {"commune": "Toulouse", "num_station": 221, "nb_bornettes": 20, "no": "85", "m_en_s_16_nov_07": "2008", "geo_point_2d": [43.576443693078694, 1.406663585745594], "mot_directeur": "VAUQUELIN (RUE NICOLAS L VAUQUELIN)", "street": "RUE NICOLAS L VAUQUELIN", "code_insee": "31555", "en_service": "oui", "nom": "VAUQUELIN", "nrivoli": "3105556267", "locations_2016": 3968}},{"type": "Feature", "geometry": {"type": "Point", "coordinates": [1.407264606636005, 43.60416194326168]}, "properties": {"commune": "Toulouse", "num_station": 226, "nb_bornettes": 17, "no": "292", "m_en_s_16_nov_07": "2008", "geo_point_2d": [43.60416194326168, 1.407264606636005], "mot_directeur": "FONTAINES (RUE DES FONTAINES)", "street": "RUE DES FONTAINES", "code_insee": "31555", "en_service": "oui", "nom": "FONTAINES CASSELARDIT", "nrivoli": "3105553380", "locations_2016": 9078}},{"type": "Feature", "geometry": {"type": "Point", "coordinates": [1.451496912972016, 43.62809957263249]}, "properties": {"commune": "Toulouse", "num_station": 234, "nb_bornettes": 17, "no": "4", "m_en_s_16_nov_07": "2008", "geo_point_2d": [43.62809957263249, 1.451496912972016], "mot_directeur": "LOUIN (RUE PIERRETTE LOUIN)", "street": "RUE PIERRETTE LOUIN", "code_insee": "31555", "en_service": "oui", "nom": "LOUIN RAYNAL", "nrivoli": "3105556921", "locations_2016": 4153}},{"type": "Feature", "geometry": {"type": "Point", "coordinates": [1.448545965556452, 43.64100536022816]}, "properties": {"commune": "Toulouse", "num_station": 248, "nb_bornettes": 18, "no": "139", "m_en_s_16_nov_07": "2008", "geo_point_2d": [43.64100536022816, 1.448545965556452], "mot_directeur": "ROSTAND (RUE EDMOND ROSTAND)", "street": "RUE EDMOND ROSTAND", "code_insee": "31555", "en_service": "oui", "nom": "BOUQUETINS ROSTAND", "nrivoli": "3105552888", "locations_2016": 2221}},{"type": "Feature", "geometry": {"type": "Point", "coordinates": [1.461764600696849, 43.61431422357151]}, "properties": {"commune": "Toulouse", "num_station": 251, "nb_bornettes": 20, "no": "26", "m_en_s_16_nov_07": "2008", "geo_point_2d": [43.61431422357151, 1.461764600696849], "mot_directeur": "BLUM (AV LEON BLUM)", "street": "AV LEON BLUM", "code_insee": "31555", "en_service": "oui", "nom": "JOLIMONT", "nrivoli": "3105555152", "locations_2016": 3626}},{"type": "Feature", "geometry": {"type": "Point", "coordinates": [1.410283182097564, 43.593992367802606]}, "properties": {"commune": "Toulouse", "num_station": 194, "nb_bornettes": 20, "no": "93", "m_en_s_16_nov_07": "2008", "geo_point_2d": [43.593992367802606, 1.410283182097564], "mot_directeur": "LOMBEZ (AV DE LOMBEZ)", "street": "AV DE LOMBEZ", "code_insee": "31555", "en_service": "oui", "nom": "LOMBEZ HIPPODROME", "nrivoli": "3105555308", "locations_2016": 9812}},{"type": "Feature", "geometry": {"type": "Point", "coordinates": [1.432346457784361, 43.63052222437632]}, "properties": {"commune": "Toulouse", "num_station": 253, "nb_bornettes": 18, "no": "75", "m_en_s_16_nov_07": "2008", "geo_point_2d": [43.63052222437632, 1.432346457784361], "mot_directeur": "UNIS (AV DES ETATS UNIS)", "street": "AV DES ETATS UNIS", "code_insee": "31555", "en_service": "oui", "nom": "ETATS UNIS  CHARLAS", "nrivoli": "3105553104", "locations_2016": 2464}},{"type": "Feature", "geometry": {"type": "Point", "coordinates": [1.424427819687436, 43.59320057953024]}, "properties": {"commune": "Toulouse", "num_station": 183, "nb_bornettes": 18, "no": "66", "m_en_s_16_nov_07": "2008", "geo_point_2d": [43.59320057953024, 1.424427819687436], "mot_directeur": "CUGNAUX (RUE DE CUGNAUX)", "street": "RUE DE CUGNAUX", "code_insee": "31555", "en_service": "oui", "nom": "CUGNAUX GRAVETTE", "nrivoli": "3105552424", "locations_2016": 14879}},{"type": "Feature", "geometry": {"type": "Point", "coordinates": [1.448552400676191, 43.57390789051081]}, "properties": {"commune": "Toulouse", "num_station": 280, "nb_bornettes": 0, "nom": "CHARBONNI\u00c8RE", "m_en_s_16_nov_07": "2013", "geo_point_2d": [43.57390789051081, 1.448552400676191], "mot_directeur": "CHARBONNIERE (RUE DE LA CHARBONNIERE)", "street": "RUE DE LA CHARBONNIERE", "code_insee": "31555", "en_service": "oui", "locations_2016": 7083}},{"type": "Feature", "geometry": {"type": "Point", "coordinates": [1.388783799161274, 43.58145094547684]}, "properties": {"commune": "Toulouse", "num_station": 275, "nb_bornettes": 0, "nom": "PLACE DES PRADETTES", "m_en_s_16_nov_07": "2013", "geo_point_2d": [43.58145094547684, 1.388783799161274], "mot_directeur": "PRADETTES (PL DES PRADETTES)", "street": "PL DES PRADETTES", "code_insee": "31555", "en_service": "oui", "locations_2016": 3060}},{"type": "Feature", "geometry": {"type": "Point", "coordinates": [1.392606072837418, 43.57915718847198]}, "properties": {"commune": "Toulouse", "num_station": 273, "nb_bornettes": 0, "nom": "IZAR", "m_en_s_16_nov_07": "2013", "geo_point_2d": [43.57915718847198, 1.392606072837418], "mot_directeur": "IZAR (RPT LOUIS IZAR)", "street": "RPT LOUIS IZAR", "code_insee": "31555", "en_service": "oui", "locations_2016": 1265}},{"type": "Feature", "geometry": {"type": "Point", "coordinates": [1.379791799637351, 43.58146783068809]}, "properties": {"commune": "Toulouse", "num_station": 276, "nb_bornettes": 0, "nom": "MARIN", "m_en_s_16_nov_07": "2013", "geo_point_2d": [43.58146783068809, 1.379791799637351], "mot_directeur": "MARIN (CHE DU MARIN)", "street": "CHE DU MARIN", "code_insee": "31555", "en_service": "oui", "locations_2016": 1518}},{"type": "Feature", "geometry": {"type": "Point", "coordinates": [1.40641531228392, 43.58377790375025]}, "properties": {"commune": "Toulouse", "num_station": 254, "nb_bornettes": 0, "nom": "PLACE CAMPAN", "m_en_s_16_nov_07": "2013", "geo_point_2d": [43.58377790375025, 1.40641531228392], "mot_directeur": "CAMPAN (PL LOUIS CAMPAN)", "street": "PL LOUIS CAMPAN", "code_insee": "31555", "en_service": "oui", "locations_2016": 367}},{"type": "Feature", "geometry": {"type": "Point", "coordinates": [1.445283931896369, 43.604880314142136]}, "properties": {"commune": "Toulouse", "num_station": 2, "nb_bornettes": 22, "no": "21", "m_en_s_16_nov_07": "2007", "geo_point_2d": [43.604880314142136, 1.445283931896369], "mot_directeur": "LAFAYETTE (RUE LAFAYETTE)", "street": "RUE LAFAYETTE", "code_insee": "31555", "en_service": "oui", "nom": "LAFAYETTE", "nrivoli": "3105554920", "locations_2016": 65710}},{"type": "Feature", "geometry": {"type": "Point", "coordinates": [1.455889069369296, 43.594616626555165]}, "properties": {"commune": "Toulouse", "num_station": 101, "nb_bornettes": 20, "no": "5", "m_en_s_16_nov_07": "2008", "geo_point_2d": [43.594616626555165, 1.455889069369296], "mot_directeur": "SAUVEUR (PORT SAINT SAUVEUR)", "street": "PORT SAINT SAUVEUR", "code_insee": "31555", "en_service": "oui", "nom": "CAPTAINERIE PORT  - ST SAUVEUR", "nrivoli": "3105558066", "locations_2016": 30068}},{"type": "Feature", "geometry": {"type": "Point", "coordinates": [1.445508083775763, 43.603269650920645]}, "properties": {"commune": "Toulouse", "num_station": 3, "nb_bornettes": 19, "no": "62", "m_en_s_16_nov_07": "2007", "geo_point_2d": [43.603269650920645, 1.445508083775763], "mot_directeur": "POMME (RUE DE LA POMME)", "street": "RUE DE LA POMME", "code_insee": "31555", "en_service": "oui", "nom": "POMME", "nrivoli": "3105556988", "locations_2016": 63413}},{"type": "Feature", "geometry": {"type": "Point", "coordinates": [1.436692741794254, 43.59846308625473]}, "properties": {"commune": "Toulouse", "num_station": 75, "nb_bornettes": 21, "no": "12", "m_en_s_16_nov_07": "2007", "geo_point_2d": [43.59846308625473, 1.436692741794254], "mot_directeur": "LAGANNE (PL LAGANNE)", "street": "PL LAGANNE", "code_insee": "31555", "en_service": "oui", "nom": "CHATEAU D EAU", "nrivoli": "3105554944", "locations_2016": 30101}},{"type": "Feature", "geometry": {"type": "Point", "coordinates": [1.436237103877684, 43.59666739418037]}, "properties": {"commune": "Toulouse", "num_station": 74, "nb_bornettes": 18, "no": "37", "m_en_s_16_nov_07": "2008", "geo_point_2d": [43.59666739418037, 1.436237103877684], "mot_directeur": "LAGANNE (RUE LAGANNE)", "street": "RUE LAGANNE", "code_insee": "31555", "en_service": "oui", "nom": "LAGANNE - TEINTURIERS", "nrivoli": "3105554948", "locations_2016": 9632}},{"type": "Feature", "geometry": {"type": "Point", "coordinates": [1.435055261597384, 43.61526002175326]}, "properties": {"commune": "Toulouse", "num_station": 109, "nb_bornettes": 20, "no": "1", "m_en_s_16_nov_07": "2008", "geo_point_2d": [43.61526002175326, 1.435055261597384], "mot_directeur": "MARQUETTE (BD DE LA MARQUETTE)", "street": "BD DE LA MARQUETTE", "code_insee": "31555", "en_service": "oui", "nom": "HOTEL DE DEPARTEMENT", "nrivoli": "3105555716", "locations_2016": 11379}},{"type": "Feature", "geometry": {"type": "Point", "coordinates": [1.435022974713734, 43.61020929231464]}, "properties": {"commune": "Toulouse", "num_station": 88, "nb_bornettes": 25, "no": "17T", "m_en_s_16_nov_07": "2007", "geo_point_2d": [43.61020929231464, 1.435022974713734], "mot_directeur": "LASCROSSES (BD LASCROSSES)", "street": "BD LASCROSSES", "code_insee": "31555", "en_service": "oui", "nom": "DUPORTAL -  LASCROSSES", "nrivoli": "3105555080", "locations_2016": 48644}},{"type": "Feature", "geometry": {"type": "Point", "coordinates": [1.451413489607009, 43.61238262099422]}, "properties": {"commune": "Toulouse", "num_station": 97, "nb_bornettes": 20, "no": "00", "m_en_s_16_nov_07": "2007", "geo_point_2d": [43.61238262099422, 1.451413489607009], "mot_directeur": "RAYMOND IV (RUE RAYMOND IV)", "street": "RUE RAYMOND IV", "code_insee": "31555", "en_service": "oui", "nom": "RAYMOND IV", "nrivoli": "3105557320", "locations_2016": 18913}},{"type": "Feature", "geometry": {"type": "Point", "coordinates": [1.449346514827589, 43.60957205278695]}, "properties": {"commune": "Toulouse", "num_station": 36, "nb_bornettes": 23, "no": "5", "m_en_s_16_nov_07": "2008", "geo_point_2d": [43.60957205278695, 1.449346514827589], "mot_directeur": "SCHUMAN (PL ROBERT SCHUMAN)", "street": "PL ROBERT SCHUMAN", "code_insee": "31555", "en_service": "oui", "nom": "PLACE SCHUMAN", "nrivoli": "3105557536", "locations_2016": 33670}},{"type": "Feature", "geometry": {"type": "Point", "coordinates": [1.436082940622407, 43.6034948596875]}, "properties": {"commune": "Toulouse", "num_station": 28, "nb_bornettes": 22, "no": "6", "m_en_s_16_nov_07": "2007", "geo_point_2d": [43.6034948596875, 1.436082940622407], "mot_directeur": "PIERRE (PL SAINT PIERRE)", "street": "PL SAINT PIERRE", "code_insee": "31555", "en_service": "oui", "nom": "PLACE SAINT PIERRE", "nrivoli": "3105557948", "locations_2016": 36588}},{"type": "Feature", "geometry": {"type": "Point", "coordinates": [1.448129350187563, 43.60321449954822]}, "properties": {"commune": "Toulouse", "num_station": 8, "nb_bornettes": 24, "no": "19", "m_en_s_16_nov_07": "2007", "geo_point_2d": [43.60321449954822, 1.448129350187563], "mot_directeur": "VIDAL (RUE PAUL VIDAL)", "street": "RUE PAUL VIDAL", "code_insee": "31555", "en_service": "oui", "nom": "ESPACE SAINT GEORGES", "nrivoli": "3105556660", "locations_2016": 26973}},{"type": "Feature", "geometry": {"type": "Point", "coordinates": [1.45172699115784, 43.60292159809713]}, "properties": {"commune": "Toulouse", "num_station": 22, "nb_bornettes": 20, "no": "24", "m_en_s_16_nov_07": "2007", "geo_point_2d": [43.60292159809713, 1.45172699115784], "mot_directeur": "CARNOT (BD LAZARE CARNOT)", "street": "BD LAZARE CARNOT", "code_insee": "31555", "en_service": "oui", "nom": "CARNOT ROLAND", "nrivoli": "3105555132", "locations_2016": 10516}},{"type": "Feature", "geometry": {"type": "Point", "coordinates": [1.451654888855738, 43.59783992243578]}, "properties": {"commune": "Toulouse", "num_station": 44, "nb_bornettes": 20, "no": "1", "m_en_s_16_nov_07": "2007", "geo_point_2d": [43.59783992243578, 1.451654888855738], "mot_directeur": "VERDIER (ALL FORAIN FRANCOIS VERDIER)", "street": "ALL FORAIN FRANCOIS VERDIER", "code_insee": "31555", "en_service": "oui", "nom": "PALAIS NIEL", "nrivoli": "3105553396", "locations_2016": 10252}},{"type": "Feature", "geometry": {"type": "Point", "coordinates": [1.442911811729471, 43.59798992309633]}, "properties": {"commune": "Toulouse", "num_station": 26, "nb_bornettes": 21, "no": "9", "m_en_s_16_nov_07": "2007", "geo_point_2d": [43.59798992309633, 1.442911811729471], "mot_directeur": "GORSSE (RUE HENRY DE GORSSE)", "street": "RUE HENRY DE GORSSE", "code_insee": "31555", "en_service": "oui", "nom": "DALBADE - DE GORSSE", "nrivoli": "3105554132", "locations_2016": 24693}},{"type": "Feature", "geometry": {"type": "Point", "coordinates": [1.432545370556561, 43.59513943226889]}, "properties": {"commune": "Toulouse", "num_station": 72, "nb_bornettes": 18, "no": "23", "m_en_s_16_nov_07": "2007", "geo_point_2d": [43.59513943226889, 1.432545370556561], "mot_directeur": "FITTE (ALL CHARLES DE FITTE)", "street": "ALL CHARLES DE FITTE", "code_insee": "31555", "en_service": "oui", "nom": "FITTE -  CUGNAUX", "nrivoli": "3105551920", "locations_2016": 8168}},{"type": "Feature", "geometry": {"type": "Point", "coordinates": [1.431617350882172, 43.5977807803226]}, "properties": {"commune": "Toulouse", "num_station": 77, "nb_bornettes": 13, "no": "2", "m_en_s_16_nov_07": "2008", "geo_point_2d": [43.5977807803226, 1.431617350882172], "mot_directeur": "CYPRIEN (PL INTERIEURE ST CYPRIEN)", "street": "PL INTERIEURE ST CYPRIEN", "code_insee": "31555", "en_service": "oui", "nom": "PLACE INT SAINT CYPRIEN", "nrivoli": "3105554336", "locations_2016": 22923}},{"type": "Feature", "geometry": {"type": "Point", "coordinates": [1.435050053267574, 43.59856445556356]}, "properties": {"commune": "Toulouse", "num_station": 76, "nb_bornettes": 20, "no": "34", "m_en_s_16_nov_07": "2008", "geo_point_2d": [43.59856445556356, 1.435050053267574], "mot_directeur": "REPUBLIQUE (RUE DE LA REPUBLIQUE)", "street": "RUE DE LA REPUBLIQUE", "code_insee": "31555", "en_service": "oui", "nom": "REPUBLIQUE - PLACE OLIVIER", "nrivoli": "3105557428", "locations_2016": 24212}},{"type": "Feature", "geometry": {"type": "Point", "coordinates": [1.441350647947544, 43.60613631802489]}, "properties": {"commune": "Toulouse", "num_station": 13, "nb_bornettes": 15, "no": "1", "m_en_s_16_nov_07": "2007", "geo_point_2d": [43.60613631802489, 1.441350647947544], "mot_directeur": "ESQUILE (RUE DE L ESQUILE)", "street": "RUE DE L ESQUILE", "code_insee": "31555", "en_service": "oui", "nom": "LOIS -  ESQUILE", "nrivoli": "3105553080", "locations_2016": 24543}},{"type": "Feature", "geometry": {"type": "Point", "coordinates": [1.45275602509899, 43.610469412286804]}, "properties": {"commune": "Toulouse", "num_station": 61, "nb_bornettes": 25, "no": "8T", "m_en_s_16_nov_07": "2007", "geo_point_2d": [43.610469412286804, 1.45275602509899], "mot_directeur": "BONREPOS (BD DE BONREPOS)", "street": "BD DE BONREPOS", "code_insee": "31555", "en_service": "oui", "nom": "BONREPOS", "nrivoli": "3105551256", "locations_2016": 27856}},{"type": "Feature", "geometry": {"type": "Point", "coordinates": [1.44845740689087, 43.61264645090925]}, "properties": {"commune": "Toulouse", "num_station": 60, "nb_bornettes": 21, "no": "32", "m_en_s_16_nov_07": "2008", "geo_point_2d": [43.61264645090925, 1.44845740689087], "mot_directeur": "ROQUELAINE (PL ROQUELAINE)", "street": "PL ROQUELAINE", "code_insee": "31555", "en_service": "oui", "nom": "ROQUELAINE", "nrivoli": "3105557600", "locations_2016": 23566}},{"type": "Feature", "geometry": {"type": "Point", "coordinates": [1.435062627804635, 43.593259987104005]}, "properties": {"commune": "Toulouse", "num_station": 71, "nb_bornettes": 24, "no": "3", "m_en_s_16_nov_07": "2008", "geo_point_2d": [43.593259987104005, 1.435062627804635], "mot_directeur": "LAGANNE (RUE LAGANNE)", "street": "RUE LAGANNE", "code_insee": "31555", "en_service": "oui", "nom": "COURS DILLON", "nrivoli": "3105554948", "locations_2016": 16200}},{"type": "Feature", "geometry": {"type": "Point", "coordinates": [1.441400725999804, 43.59958037216279]}, "properties": {"commune": "Toulouse", "num_station": 49, "nb_bornettes": 18, "no": "52", "m_en_s_16_nov_07": "2008", "geo_point_2d": [43.59958037216279, 1.441400725999804], "mot_directeur": "COUTELIERS (RUE DES COUTELIERS)", "street": "RUE DES COUTELIERS", "code_insee": "31555", "en_service": "oui", "nom": "COUTELIERS -  METZ", "nrivoli": "3105552372", "locations_2016": 28850}},{"type": "Feature", "geometry": {"type": "Point", "coordinates": [1.414843015834944, 43.60200113321408]}, "properties": {"commune": "Toulouse", "num_station": 136, "nb_bornettes": 20, "no": "190", "m_en_s_16_nov_07": "2008", "geo_point_2d": [43.60200113321408, 1.414843015834944], "mot_directeur": "FONTAINES (RUE DES FONTAINES)", "street": "RUE DES FONTAINES", "code_insee": "31555", "en_service": "oui", "nom": "FONTAINES MILHES", "nrivoli": "3105553380", "locations_2016": 13704}},{"type": "Feature", "geometry": {"type": "Point", "coordinates": [1.429174151725691, 43.6197021555423]}, "properties": {"commune": "Toulouse", "num_station": 147, "nb_bornettes": 19, "no": "96", "m_en_s_16_nov_07": "2008", "geo_point_2d": [43.6197021555423, 1.429174151725691], "mot_directeur": "CHAUSSAS (RUE DE CHAUSSAS)", "street": "RUE DE CHAUSSAS", "code_insee": "31555", "en_service": "oui", "nom": "CHAUSSAS DAUDET", "nrivoli": "3105551996", "locations_2016": 12231}},{"type": "Feature", "geometry": {"type": "Point", "coordinates": [1.4419477974753, 43.57955798406746]}, "properties": {"commune": "Toulouse", "num_station": 156, "nb_bornettes": 20, "no": "38", "m_en_s_16_nov_07": "2008", "geo_point_2d": [43.57955798406746, 1.4419477974753], "mot_directeur": "MOULIN (AV JEAN MOULIN)", "street": "AV JEAN MOULIN", "code_insee": "31555", "en_service": "oui", "nom": "METRO EMPALOT", "nrivoli": "3105554616", "locations_2016": 8377}},{"type": "Feature", "geometry": {"type": "Point", "coordinates": [1.448596262790887, 43.58291643650024]}, "properties": {"commune": "Toulouse", "num_station": 157, "nb_bornettes": 18, "no": "16B", "m_en_s_16_nov_07": "2008", "geo_point_2d": [43.58291643650024, 1.448596262790887], "mot_directeur": "URSS (AV DE L URSS)", "street": "AV DE L URSS", "code_insee": "31555", "en_service": "oui", "nom": "URSS RECOLLETS", "nrivoli": "3105558660", "locations_2016": 10628}},{"type": "Feature", "geometry": {"type": "Point", "coordinates": [1.449160019247092, 43.58088389771854]}, "properties": {"commune": "Toulouse", "num_station": 158, "nb_bornettes": 20, "no": "55", "m_en_s_16_nov_07": "2008", "geo_point_2d": [43.58088389771854, 1.449160019247092], "mot_directeur": "URSS (AV DE L URSS)", "street": "AV DE L URSS", "code_insee": "31555", "en_service": "oui", "nom": "URSS ST THOMAS D AQUIN", "nrivoli": "3105558660", "locations_2016": 22045}},{"type": "Feature", "geometry": {"type": "Point", "coordinates": [1.454846228441906, 43.57664262821756]}, "properties": {"commune": "Toulouse", "num_station": 161, "nb_bornettes": 16, "no": "35", "m_en_s_16_nov_07": "2008", "geo_point_2d": [43.57664262821756, 1.454846228441906], "mot_directeur": "RANGUEIL (AV DE RANGUEIL)", "street": "AV DE RANGUEIL", "code_insee": "31555", "en_service": "oui", "nom": "RANGUEIL BEDOUCE", "nrivoli": "3105557268", "locations_2016": 6358}},{"type": "Feature", "geometry": {"type": "Point", "coordinates": [1.460136168583298, 43.57686580199079]}, "properties": {"commune": "Toulouse", "num_station": 165, "nb_bornettes": 15, "no": "35", "m_en_s_16_nov_07": "2008", "geo_point_2d": [43.57686580199079, 1.460136168583298], "mot_directeur": "AVIONS (AV DES AVIONS)", "street": "AV DES AVIONS", "code_insee": "31555", "en_service": "oui", "nom": "AVIONS LIBELLULES", "nrivoli": "3105550732", "locations_2016": 3010}},{"type": "Feature", "geometry": {"type": "Point", "coordinates": [1.461104103073536, 43.642871980395505]}, "properties": {"commune": "Toulouse", "num_station": 172, "nb_bornettes": 20, "no": "0", "m_en_s_16_nov_07": "2008", "geo_point_2d": [43.642871980395505, 1.461104103073536], "mot_directeur": "LAFFORGUE (RPT DE L ABBE G. LAFFORGUE)", "street": "RPT DE L ABBE G. LAFFORGUE", "code_insee": "31555", "en_service": "oui", "nom": "RPT POINT LAFFORGUE", "nrivoli": "3105550011", "locations_2016": 2824}},{"type": "Feature", "geometry": {"type": "Point", "coordinates": [1.452678055388736, 43.63692063493003]}, "properties": {"commune": "Toulouse", "num_station": 174, "nb_bornettes": 20, "no": "41", "m_en_s_16_nov_07": "2008", "geo_point_2d": [43.63692063493003, 1.452678055388736], "mot_directeur": "MAUNOURY (AV MAURICE BOURGES MAUNOURY)", "street": "AV MAURICE BOURGES MAUNOURY", "code_insee": "31555", "en_service": "oui", "nom": "BOURGES MAUNOURY MELAT", "nrivoli": "3105555789", "locations_2016": 3169}},{"type": "Feature", "geometry": {"type": "Point", "coordinates": [1.468728679515408, 43.619311659537054]}, "properties": {"commune": "Toulouse", "num_station": 178, "nb_bornettes": 20, "no": "98", "m_en_s_16_nov_07": "2008", "geo_point_2d": [43.619311659537054, 1.468728679515408], "mot_directeur": "BRUNAUD (AV YVES BRUNAUD)", "street": "AV YVES BRUNAUD", "code_insee": "31555", "en_service": "oui", "nom": "PLACE DE LA ROSERAIE", "nrivoli": "3105558972", "locations_2016": 10271}},{"type": "Feature", "geometry": {"type": "Point", "coordinates": [1.473620822896019, 43.61695037566303]}, "properties": {"commune": "Toulouse", "num_station": 179, "nb_bornettes": 17, "no": "4", "m_en_s_16_nov_07": "2008", "geo_point_2d": [43.61695037566303, 1.473620822896019], "mot_directeur": "CASSAING (CHE CASSAING)", "street": "CHE CASSAING", "code_insee": "31555", "en_service": "oui", "nom": "CASSAING PLANA", "nrivoli": "3105551744", "locations_2016": 1813}},{"type": "Feature", "geometry": {"type": "Point", "coordinates": [1.465605433980293, 43.62719534391426]}, "properties": {"commune": "Toulouse", "num_station": 185, "nb_bornettes": 15, "no": "30", "m_en_s_16_nov_07": "2008", "geo_point_2d": [43.62719534391426, 1.465605433980293], "mot_directeur": "ROUBICHOU (RUE ROUBICHOU)", "street": "RUE ROUBICHOU", "code_insee": "31555", "en_service": "oui", "nom": "ROUBICHOU ARLES", "nrivoli": "3105557648", "locations_2016": 1821}},{"type": "Feature", "geometry": {"type": "Point", "coordinates": [1.425460598314955, 43.58152924085271]}, "properties": {"commune": "Toulouse", "num_station": 189, "nb_bornettes": 20, "no": "44", "m_en_s_16_nov_07": "2008", "geo_point_2d": [43.58152924085271, 1.425460598314955], "mot_directeur": "MURET (AV DE MURET)", "street": "AV DE MURET", "code_insee": "31555", "en_service": "oui", "nom": "MURET BOUTINON", "nrivoli": "3105556160", "locations_2016": 10021}},{"type": "Feature", "geometry": {"type": "Point", "coordinates": [1.42399290177347, 43.57730292582678]}, "properties": {"commune": "Toulouse", "num_station": 190, "nb_bornettes": 20, "no": "39", "m_en_s_16_nov_07": "2008", "geo_point_2d": [43.57730292582678, 1.42399290177347], "mot_directeur": "ESPAGNE (RTE D ESPAGNE)", "street": "RTE D ESPAGNE", "code_insee": "31555", "en_service": "oui", "nom": "OUSTALOUS", "nrivoli": "3105553064", "locations_2016": 6108}},{"type": "Feature", "geometry": {"type": "Point", "coordinates": [1.409555734375369, 43.58777710897651]}, "properties": {"commune": "Toulouse", "num_station": 192, "nb_bornettes": 18, "no": "355", "m_en_s_16_nov_07": "2008", "geo_point_2d": [43.58777710897651, 1.409555734375369], "mot_directeur": "SIMON (RTE DE SAINT SIMON)", "street": "RTE DE SAINT SIMON", "code_insee": "31555", "en_service": "oui", "nom": "ST SIMON PRADO", "nrivoli": "3105557988", "locations_2016": 3338}},{"type": "Feature", "geometry": {"type": "Point", "coordinates": [1.458015835593863, 43.60183574489812]}, "properties": {"commune": "Toulouse", "num_station": 196, "nb_bornettes": 20, "no": "10", "m_en_s_16_nov_07": "2008", "geo_point_2d": [43.60183574489812, 1.458015835593863], "mot_directeur": "GOUJON (RUE JEAN GOUJON)", "street": "RUE JEAN GOUJON", "code_insee": "31555", "en_service": "oui", "nom": "GOUJON PUJOL", "nrivoli": "3105554584", "locations_2016": 15376}},{"type": "Feature", "geometry": {"type": "Point", "coordinates": [1.464048912851146, 43.60030119779862]}, "properties": {"commune": "Toulouse", "num_station": 197, "nb_bornettes": 20, "no": "6", "m_en_s_16_nov_07": "2008", "geo_point_2d": [43.60030119779862, 1.464048912851146], "mot_directeur": "BLERIOT (AV LOUIS BLERIOT)", "street": "AV LOUIS BLERIOT", "code_insee": "31555", "en_service": "oui", "nom": "CASERNE PERIGNON", "nrivoli": "3105555360", "locations_2016": 3279}},{"type": "Feature", "geometry": {"type": "Point", "coordinates": [1.470017114088184, 43.591489428754166]}, "properties": {"commune": "Toulouse", "num_station": 199, "nb_bornettes": 20, "no": "4", "m_en_s_16_nov_07": "2008", "geo_point_2d": [43.591489428754166, 1.470017114088184], "mot_directeur": "DELTOUR (BD DELTOUR)", "street": "BD DELTOUR", "code_insee": "31555", "en_service": "oui", "nom": "DELTOUR RIEUX", "nrivoli": "3105552580", "locations_2016": 3408}},{"type": "Feature", "geometry": {"type": "Point", "coordinates": [1.480088579202143, 43.591181032149976]}, "properties": {"commune": "Toulouse", "num_station": 208, "nb_bornettes": 18, "nom": "LIMAYRAC DARASSE", "m_en_s_16_nov_07": "2008", "geo_point_2d": [43.591181032149976, 1.480088579202143], "mot_directeur": "LIMAYRAC (ALL DE LIMAYRAC)", "street": "ALL DE LIMAYRAC", "code_insee": "31555", "en_service": "oui", "nrivoli": "3105555273", "locations_2016": 1571}},{"type": "Feature", "geometry": {"type": "Point", "coordinates": [1.478886353524036, 43.589550847633085]}, "properties": {"commune": "Toulouse", "num_station": 209, "nb_bornettes": 17, "no": "4", "m_en_s_16_nov_07": "2008", "geo_point_2d": [43.589550847633085, 1.478886353524036], "mot_directeur": "BAROUX (AV LUCIEN BAROUX)", "street": "AV LUCIEN BAROUX", "code_insee": "31555", "en_service": "oui", "nom": "BAROUX DARASSE", "nrivoli": "3105555446", "locations_2016": 476}},{"type": "Feature", "geometry": {"type": "Point", "coordinates": [1.46647604379252, 43.64107093158611]}, "properties": {"commune": "Toulouse", "num_station": 171, "nb_bornettes": 20, "no": "191", "m_en_s_16_nov_07": "2008", "geo_point_2d": [43.64107093158611, 1.46647604379252], "mot_directeur": "ALBI (RTE D ALBI)", "street": "RTE D ALBI", "code_insee": "31555", "en_service": "oui", "nom": "ALBI PELET", "nrivoli": "3105550124", "locations_2016": 2919}},{"type": "Feature", "geometry": {"type": "Point", "coordinates": [1.475939755873738, 43.62382412586767]}, "properties": {"commune": "Toulouse", "num_station": 215, "nb_bornettes": 20, "no": "8", "m_en_s_16_nov_07": "2008", "geo_point_2d": [43.62382412586767, 1.475939755873738], "mot_directeur": "GAILLAC (RUE DE GAILLAC)", "street": "RUE DE GAILLAC", "code_insee": "31555", "en_service": "oui", "nom": "METRO ARGOULETS", "nrivoli": "3105553668", "locations_2016": 7379}},{"type": "Feature", "geometry": {"type": "Point", "coordinates": [1.46194309591631, 43.62766505935879]}, "properties": {"commune": "Toulouse", "num_station": 218, "nb_bornettes": 18, "no": "24B", "m_en_s_16_nov_07": "2008", "geo_point_2d": [43.62766505935879, 1.46194309591631], "mot_directeur": "AMOUROUX (CHE AMOUROUX)", "street": "CHE AMOUROUX", "code_insee": "31555", "en_service": "oui", "nom": "AMOUROUX SAINTE AUGUSTINE", "nrivoli": "3105550260", "locations_2016": 1325}},{"type": "Feature", "geometry": {"type": "Point", "coordinates": [1.464447483795627, 43.56803843370946]}, "properties": {"commune": "Toulouse", "num_station": 228, "nb_bornettes": 20, "no": "35", "m_en_s_16_nov_07": "2008", "geo_point_2d": [43.56803843370946, 1.464447483795627], "mot_directeur": "MARAICHERS (CHE DES MARAICHERS)", "street": "CHE DES MARAICHERS", "code_insee": "31555", "en_service": "oui", "nom": "METRO PHARMACIE", "nrivoli": "3105555576", "locations_2016": 19239}},{"type": "Feature", "geometry": {"type": "Point", "coordinates": [1.467783615355583, 43.56735439073572]}, "properties": {"commune": "Toulouse", "num_station": 230, "nb_bornettes": 20, "no": "141", "m_en_s_16_nov_07": "2008", "geo_point_2d": [43.56735439073572, 1.467783615355583], "mot_directeur": "RANGUEIL (AV DE RANGUEIL)", "street": "AV DE RANGUEIL", "code_insee": "31555", "en_service": "oui", "nom": "RANGUEIL TRIPODE B", "nrivoli": "3105557268", "locations_2016": 11427}},{"type": "Feature", "geometry": {"type": "Point", "coordinates": [1.469496690406513, 43.576977534904564]}, "properties": {"commune": "Toulouse", "num_station": 239, "nb_bornettes": 18, "no": "127", "m_en_s_16_nov_07": "2008", "geo_point_2d": [43.576977534904564, 1.469496690406513], "mot_directeur": "LESPINET (AV DE LESPINET)", "street": "AV DE LESPINET", "code_insee": "31555", "en_service": "oui", "nom": "LESPINET HERBETTES", "nrivoli": "3105555196", "locations_2016": 15228}},{"type": "Feature", "geometry": {"type": "Point", "coordinates": [1.415098687010605, 43.59983961897599]}, "properties": {"commune": "Toulouse", "num_station": 245, "nb_bornettes": 20, "no": "103B", "m_en_s_16_nov_07": "2008", "geo_point_2d": [43.59983961897599, 1.415098687010605], "mot_directeur": "BRETAGNE (AV DE GRANDE BRETAGNE)", "street": "AV DE GRANDE BRETAGNE", "code_insee": "31555", "en_service": "oui", "nom": "GRANDE BRETAGNE BADIOU", "nrivoli": "3105553984", "locations_2016": 7506}},{"type": "Feature", "geometry": {"type": "Point", "coordinates": [1.420080583592901, 43.603818918064164]}, "properties": {"commune": "Toulouse", "num_station": 246, "nb_bornettes": 20, "no": "29", "m_en_s_16_nov_07": "2008", "geo_point_2d": [43.603818918064164, 1.420080583592901], "mot_directeur": "WAGNER (BD RICHARD WAGNER)", "street": "BD RICHARD WAGNER", "code_insee": "31555", "en_service": "oui", "nom": "WAGNER BRUNHES", "nrivoli": "3105557468", "locations_2016": 14694}},{"type": "Feature", "geometry": {"type": "Point", "coordinates": [1.480958521186139, 43.56229035832073]}, "properties": {"commune": "Toulouse", "num_station": 237, "nb_bornettes": 20, "no": "16", "m_en_s_16_nov_07": "2008", "geo_point_2d": [43.56229035832073, 1.480958521186139], "mot_directeur": "BELIN (AV EDOUARD BELIN)", "street": "AV EDOUARD BELIN", "code_insee": "31555", "en_service": "oui", "nom": "BELIN C.N.R.S.", "nrivoli": "3105552894", "locations_2016": 7144}},{"type": "Feature", "geometry": {"type": "Point", "coordinates": [1.465029666208326, 43.63830406314297]}, "properties": {"commune": "Toulouse", "num_station": 249, "nb_bornettes": 18, "no": "159", "m_en_s_16_nov_07": "2008", "geo_point_2d": [43.63830406314297, 1.465029666208326], "mot_directeur": "ALBI (RTE D ALBI)", "street": "RTE D ALBI", "code_insee": "31555", "en_service": "oui", "nom": "MAIRIE CROIX DAURADE", "nrivoli": "3105550124", "locations_2016": 2536}},{"type": "Feature", "geometry": {"type": "Point", "coordinates": [1.475781252201485, 43.5630766723839]}, "properties": {"commune": "Toulouse", "num_station": 222, "nb_bornettes": 20, "no": "11", "m_en_s_16_nov_07": "2008", "geo_point_2d": [43.5630766723839, 1.475781252201485], "mot_directeur": "ROCHE (AV DU COLONEL ROCHE)", "street": "AV DU COLONEL ROCHE", "code_insee": "31555", "en_service": "oui", "nom": "CESR", "nrivoli": "3105552202", "locations_2016": 19680}},{"type": "Feature", "geometry": {"type": "Point", "coordinates": [1.443996941735042, 43.62686082827993]}, "properties": {"commune": "Toulouse", "num_station": 252, "nb_bornettes": 20, "no": "161", "m_en_s_16_nov_07": "2008", "geo_point_2d": [43.62686082827993, 1.443996941735042], "mot_directeur": "NEGRENEYS (RUE DE NEGRENEYS)", "street": "RUE DE NEGRENEYS", "code_insee": "31555", "en_service": "oui", "nom": "NEGRENEYS", "nrivoli": "3105556236", "locations_2016": 3271}},{"type": "Feature", "geometry": {"type": "Point", "coordinates": [1.414538219661377, 43.61154373661914]}, "properties": {"commune": "Toulouse", "num_station": 131, "nb_bornettes": 18, "no": "15", "m_en_s_16_nov_07": "2008", "geo_point_2d": [43.61154373661914, 1.414538219661377], "mot_directeur": "BLAGNAC (RTE DE BLAGNAC)", "street": "RTE DE BLAGNAC", "code_insee": "31555", "en_service": "oui", "nom": "BERNIES POSTE", "nrivoli": "3105551180", "locations_2016": 9070}},{"type": "Feature", "geometry": {"type": "Point", "coordinates": [1.432640372514435, 43.647493558171995]}, "properties": {"commune": "Toulouse", "num_station": 259, "nb_bornettes": 20, "nom": "PLACE RICH\u00c9", "m_en_s_16_nov_07": "2013", "geo_point_2d": [43.647493558171995, 1.432640372514435], "mot_directeur": "RICHE (PL PAUL RICHE)", "street": "PL PAUL RICHE", "code_insee": "31555", "en_service": "oui", "nrivoli": "3105556642", "locations_2016": 2443}},{"type": "Feature", "geometry": {"type": "Point", "coordinates": [1.440245519736814, 43.640627990248454]}, "properties": {"commune": "Toulouse", "num_station": 261, "nb_bornettes": 18, "nom": "VAN DYCK", "m_en_s_16_nov_07": "2013", "geo_point_2d": [43.640627990248454, 1.440245519736814], "mot_directeur": "DYCK (RUE ANTOINE VAN DYCK)", "street": "RUE ANTOINE VAN DYCK", "code_insee": "31555", "en_service": "oui", "locations_2016": 1126}},{"type": "Feature", "geometry": {"type": "Point", "coordinates": [1.476280371124373, 43.62915139085707]}, "properties": {"commune": "Toulouse", "num_station": 258, "nb_bornettes": 0, "nom": "CAMBARD", "m_en_s_16_nov_07": "2014", "geo_point_2d": [43.62915139085707, 1.476280371124373], "mot_directeur": "CAMBARD (RUE CAMBARD)", "street": "RUE CAMBARD", "code_insee": "31555", "en_service": "oui", "locations_2016": 2285}},{"type": "Feature", "geometry": {"type": "Point", "coordinates": [1.483922567644204, 43.573919747613125]}, "properties": {"commune": "Toulouse", "num_station": 267, "nb_bornettes": 0, "nom": "GONIN", "m_en_s_16_nov_07": "2013", "geo_point_2d": [43.573919747613125, 1.483922567644204], "mot_directeur": "GONIN (RUE CLAUDE GONIN)", "street": "RUE CLAUDE GONIN", "code_insee": "31555", "en_service": "oui", "locations_2016": 1813}},{"type": "Feature", "geometry": {"type": "Point", "coordinates": [1.4467475124029, 43.57873623716405]}, "properties": {"commune": "Toulouse", "num_station": 281, "nb_bornettes": 0, "nom": "NIEL", "m_en_s_16_nov_07": "2014", "geo_point_2d": [43.57873623716405, 1.4467475124029], "mot_directeur": "ROCH (RUE SAINT ROCH)", "street": "RUE SAINT ROCH", "code_insee": "31555", "en_service": "oui", "locations_2016": 9624}},{"type": "Feature", "geometry": {"type": "Point", "coordinates": [1.410398928525144, 43.56500497247343]}, "properties": {"commune": "Toulouse", "num_station": 264, "nb_bornettes": 0, "nom": "LAFOURGUETTE", "m_en_s_16_nov_07": "2013", "geo_point_2d": [43.56500497247343, 1.410398928525144], "mot_directeur": "GLIERES (PL DES GLIERES)", "street": "PL DES GLIERES", "code_insee": "31555", "en_service": "oui", "locations_2016": 1905}},{"type": "Feature", "geometry": {"type": "Point", "coordinates": [1.397067309333223, 43.614199951884686]}, "properties": {"commune": "Toulouse", "num_station": 278, "nb_bornettes": 0, "nom": "AR\u00c8NES ROMAINES", "m_en_s_16_nov_07": "2013", "geo_point_2d": [43.614199951884686, 1.397067309333223], "mot_directeur": "ROMAINES (AV DES ARENES ROMAINES)", "street": "AV DES ARENES ROMAINES", "code_insee": "31555", "en_service": "oui", "nrivoli": "3105550448", "locations_2016": 3942}},{"type": "Feature", "geometry": {"type": "Point", "coordinates": [1.396988168903307, 43.61933131345436]}, "properties": {"commune": "Toulouse", "num_station": 271, "nb_bornettes": 0, "no": "110", "m_en_s_16_nov_07": "2013", "geo_point_2d": [43.61933131345436, 1.396988168903307], "mot_directeur": "ROMAINES (AV DES ARENES ROMAINES)", "street": "AV DES ARENES ROMAINES", "code_insee": "31555", "en_service": "oui", "nom": "ANCELY", "nrivoli": "3105550448", "locations_2016": 3887}},{"type": "Feature", "geometry": {"type": "Point", "coordinates": [1.427827514701507, 43.62400395795526]}, "properties": {"commune": "Toulouse", "num_station": 270, "nb_bornettes": 0, "nom": "TRENTIN", "m_en_s_16_nov_07": "2013", "geo_point_2d": [43.62400395795526, 1.427827514701507], "mot_directeur": "TRENTIN (BD SILVIO TRENTIN)", "street": "BD SILVIO TRENTIN", "code_insee": "31555", "en_service": "oui", "nrivoli": "3105558356", "locations_2016": 6833}},{"type": "Feature", "geometry": {"type": "Point", "coordinates": [1.445472504499364, 43.599522626333346]}, "properties": {"commune": "Toulouse", "num_station": 25, "nb_bornettes": 17, "no": "1", "m_en_s_16_nov_07": "2007", "geo_point_2d": [43.599522626333346, 1.445472504499364], "mot_directeur": "TOURNEURS (RUE DES TOURNEURS)", "street": "RUE DES TOURNEURS", "code_insee": "31555", "en_service": "oui", "nom": "PLACE ROUAIX", "nrivoli": "3105558536", "locations_2016": 42992}},{"type": "Feature", "geometry": {"type": "Point", "coordinates": [1.456081339224931, 43.60163093053496]}, "properties": {"commune": "Toulouse", "num_station": 42, "nb_bornettes": 23, "no": "3", "m_en_s_16_nov_07": "2007", "geo_point_2d": [43.60163093053496, 1.456081339224931], "mot_directeur": "ESCANDE (BD PR LEOPOLD ESCANDE)", "street": "BD PR LEOPOLD ESCANDE", "code_insee": "31555", "en_service": "oui", "nom": "DAURIAC - ESCANDE", "nrivoli": "3105557151", "locations_2016": 13160}},{"type": "Feature", "geometry": {"type": "Point", "coordinates": [1.432913709307344, 43.61498875052995]}, "properties": {"commune": "Toulouse", "num_station": 123, "nb_bornettes": 15, "no": "1", "m_en_s_16_nov_07": "2008", "geo_point_2d": [43.61498875052995, 1.432913709307344], "mot_directeur": "CHAUSSAS (RUE DE CHAUSSAS)", "street": "RUE DE CHAUSSAS", "code_insee": "31555", "en_service": "oui", "nom": "HOTEL DE POLICE", "nrivoli": "3105551996", "locations_2016": 25469}},{"type": "Feature", "geometry": {"type": "Point", "coordinates": [1.428022792308055, 43.6056429266892]}, "properties": {"commune": "Toulouse", "num_station": 82, "nb_bornettes": 16, "no": "1", "m_en_s_16_nov_07": "2007", "geo_point_2d": [43.6056429266892, 1.428022792308055], "mot_directeur": "SEJOURNE (AV PAUL SEJOURNE)", "street": "AV PAUL SEJOURNE", "code_insee": "31555", "en_service": "oui", "nom": "SEJOURNE - CATALANS", "nrivoli": "3105556648", "locations_2016": 30805}},{"type": "Feature", "geometry": {"type": "Point", "coordinates": [1.43840139062854, 43.60630525720918]}, "properties": {"commune": "Toulouse", "num_station": 30, "nb_bornettes": 25, "no": "40", "m_en_s_16_nov_07": "2007", "geo_point_2d": [43.60630525720918, 1.43840139062854], "mot_directeur": "FRANCE (PL ANATOLE FRANCE)", "street": "PL ANATOLE FRANCE", "code_insee": "31555", "en_service": "oui", "nom": "PLACE ANATOLE FRANCE", "nrivoli": "3105550272", "locations_2016": 36074}},{"type": "Feature", "geometry": {"type": "Point", "coordinates": [1.441306000706162, 43.60760386355083]}, "properties": {"commune": "Toulouse", "num_station": 32, "nb_bornettes": 12, "no": "8", "m_en_s_16_nov_07": "2008", "geo_point_2d": [43.60760386355083, 1.441306000706162], "mot_directeur": "RENARDS (RUE DES TROIS RENARDS)", "street": "RUE DES TROIS RENARDS", "code_insee": "31555", "en_service": "oui", "nom": "MUSEE ST RAYMOND", "nrivoli": "3105558616", "locations_2016": 19251}},{"type": "Feature", "geometry": {"type": "Point", "coordinates": [1.443084502694961, 43.61039681533783]}, "properties": {"commune": "Toulouse", "num_station": 57, "nb_bornettes": 15, "no": "15", "m_en_s_16_nov_07": "2007", "geo_point_2d": [43.61039681533783, 1.443084502694961], "mot_directeur": "MERLY (RUE MERLY)", "street": "RUE MERLY", "code_insee": "31555", "en_service": "oui", "nom": "MERLY -  ARCOLE", "nrivoli": "3105555896", "locations_2016": 21995}},{"type": "Feature", "geometry": {"type": "Point", "coordinates": [1.439448089478606, 43.60868648923386]}, "properties": {"commune": "Toulouse", "num_station": 54, "nb_bornettes": 18, "no": "10", "m_en_s_16_nov_07": "2007", "geo_point_2d": [43.60868648923386, 1.439448089478606], "mot_directeur": "CHAINE (RUE DE LA CHAINE)", "street": "RUE DE LA CHAINE", "code_insee": "31555", "en_service": "oui", "nom": "CHAINE", "nrivoli": "3105551844", "locations_2016": 15522}},{"type": "Feature", "geometry": {"type": "Point", "coordinates": [1.436933432051792, 43.608698170188404]}, "properties": {"commune": "Toulouse", "num_station": 53, "nb_bornettes": 24, "no": "0", "m_en_s_16_nov_07": "2007", "geo_point_2d": [43.608698170188404, 1.436933432051792], "mot_directeur": "JULIEN (PL SAINT JULIEN)", "street": "PL SAINT JULIEN", "code_insee": "31555", "en_service": "oui", "nom": "PLACE SAINT JULIEN", "nrivoli": "3105557864", "locations_2016": 23806}},{"type": "Feature", "geometry": {"type": "Point", "coordinates": [1.44648864765214, 43.605767422525034]}, "properties": {"commune": "Toulouse", "num_station": 7, "nb_bornettes": 26, "no": "6", "m_en_s_16_nov_07": "2007", "geo_point_2d": [43.605767422525034, 1.44648864765214], "mot_directeur": "VILLENEUVE (RUE DU REMPART VILLENEUVE)", "street": "RUE DU REMPART VILLENEUVE", "code_insee": "31555", "en_service": "oui", "nom": "PLACE VICTOR HUGO", "nrivoli": "3105557388", "locations_2016": 24768}},{"type": "Feature", "geometry": {"type": "Point", "coordinates": [1.442281029336915, 43.60513577442977]}, "properties": {"commune": "Toulouse", "num_station": 6, "nb_bornettes": 20, "no": "5", "m_en_s_16_nov_07": "2007", "geo_point_2d": [43.60513577442977, 1.442281029336915], "mot_directeur": "LOIS (RUE DES LOIS)", "street": "RUE DES LOIS", "code_insee": "31555", "en_service": "oui", "nom": "LOIS", "nrivoli": "3105555304", "locations_2016": 4839}},{"type": "Feature", "geometry": {"type": "Point", "coordinates": [1.442693508344862, 43.60904852142678]}, "properties": {"commune": "Toulouse", "num_station": 56, "nb_bornettes": 14, "no": "1", "m_en_s_16_nov_07": "2007", "geo_point_2d": [43.60904852142678, 1.442693508344862], "mot_directeur": "MERLY (RUE MERLY)", "street": "RUE MERLY", "code_insee": "31555", "en_service": "oui", "nom": "SAINT SERNIN  -  MERLY", "nrivoli": "3105555896", "locations_2016": 11912}},{"type": "Feature", "geometry": {"type": "Point", "coordinates": [1.446087823020402, 43.60959605693241]}, "properties": {"commune": "Toulouse", "num_station": 34, "nb_bornettes": 17, "no": "2", "m_en_s_16_nov_07": "2008", "geo_point_2d": [43.60959605693241, 1.446087823020402], "mot_directeur": "LAZARE (PETITE-RUE SAINT LAZARE)", "street": "PETITE-RUE SAINT LAZARE", "code_insee": "31555", "en_service": "oui", "nom": "SAINT LAZARE", "nrivoli": "3105557876", "locations_2016": 25102}},{"type": "Feature", "geometry": {"type": "Point", "coordinates": [1.442877930903226, 43.61528677053115]}, "properties": {"commune": "Toulouse", "num_station": 111, "nb_bornettes": 22, "no": "38B", "m_en_s_16_nov_07": "2008", "geo_point_2d": [43.61528677053115, 1.442877930903226], "mot_directeur": "MINIMES (BD DES MINIMES)", "street": "BD DES MINIMES", "code_insee": "31555", "en_service": "oui", "nom": "MINIMES -  PASSERELLE", "nrivoli": "3105555960", "locations_2016": 18479}},{"type": "Feature", "geometry": {"type": "Point", "coordinates": [1.440962799420182, 43.5943610520265]}, "properties": {"commune": "Toulouse", "num_station": 50, "nb_bornettes": 23, "no": "1", "m_en_s_16_nov_07": "2007", "geo_point_2d": [43.5943610520265, 1.440962799420182], "mot_directeur": "HAURIOU (AV MAURICE HAURIOU)", "street": "AV MAURICE HAURIOU", "code_insee": "31555", "en_service": "oui", "nom": "GARONNETTE", "nrivoli": "3105555804", "locations_2016": 12036}},{"type": "Feature", "geometry": {"type": "Point", "coordinates": [1.44399954163806, 43.59477499152488]}, "properties": {"commune": "Toulouse", "num_station": 48, "nb_bornettes": 22, "no": "18", "m_en_s_16_nov_07": "2007", "geo_point_2d": [43.59477499152488, 1.44399954163806], "mot_directeur": "SALIN (PL DU SALIN)", "street": "PL DU SALIN", "code_insee": "31555", "en_service": "oui", "nom": "PLACE DU SALIN", "nrivoli": "3105558116", "locations_2016": 28810}},{"type": "Feature", "geometry": {"type": "Point", "coordinates": [1.440425084918278, 43.604602777300705]}, "properties": {"commune": "Toulouse", "num_station": 12, "nb_bornettes": 23, "no": "66", "m_en_s_16_nov_07": "2007", "geo_point_2d": [43.604602777300705, 1.440425084918278], "mot_directeur": "PARGAMINIERES (RUE PARGAMINIERES)", "street": "RUE PARGAMINIERES", "code_insee": "31555", "en_service": "oui", "nom": "PARGAMINIERES", "nrivoli": "3105556540", "locations_2016": 37858}},{"type": "Feature", "geometry": {"type": "Point", "coordinates": [1.444902689951856, 43.60037317800617]}, "properties": {"commune": "Toulouse", "num_station": 10, "nb_bornettes": 18, "no": "15", "m_en_s_16_nov_07": "2007", "geo_point_2d": [43.60037317800617, 1.444902689951856], "mot_directeur": "ESQUIROL (PL ETIENNE ESQUIROL)", "street": "PL ETIENNE ESQUIROL", "code_insee": "31555", "en_service": "oui", "nom": "PLACE ESQUIROL", "nrivoli": "3105553084", "locations_2016": 102470}},{"type": "Feature", "geometry": {"type": "Point", "coordinates": [1.446666242913033, 43.60785838866716]}, "properties": {"commune": "Toulouse", "num_station": 16, "nb_bornettes": 21, "no": "32", "m_en_s_16_nov_07": "2007", "geo_point_2d": [43.60785838866716, 1.446666242913033], "mot_directeur": "STRASBOURG (BD DE STRASBOURG)", "street": "BD DE STRASBOURG", "code_insee": "31555", "en_service": "oui", "nom": "STRASBOURG  -  BAYARD", "nrivoli": "3105558328", "locations_2016": 36251}},{"type": "Feature", "geometry": {"type": "Point", "coordinates": [1.448822094957896, 43.59430625400039]}, "properties": {"commune": "Toulouse", "num_station": 67, "nb_bornettes": 28, "no": "35", "m_en_s_16_nov_07": "2008", "geo_point_2d": [43.59430625400039, 1.448822094957896], "mot_directeur": "GUESDE (ALL JULES GUESDE)", "street": "ALL JULES GUESDE", "code_insee": "31555", "en_service": "oui", "nom": "MUSEUM", "nrivoli": "3105554812", "locations_2016": 25392}},{"type": "Feature", "geometry": {"type": "Point", "coordinates": [1.454448398925486, 43.60270206509418]}, "properties": {"commune": "Toulouse", "num_station": 41, "nb_bornettes": 20, "no": "1", "m_en_s_16_nov_07": "2008", "geo_point_2d": [43.60270206509418, 1.454448398925486], "mot_directeur": "CAMICHEL (RUE CHARLES CAMICHEL)", "street": "RUE CHARLES CAMICHEL", "code_insee": "31555", "en_service": "oui", "nom": "ST AUBIN  - CAMICHEL", "nrivoli": "3105551560", "locations_2016": 36731}},{"type": "Feature", "geometry": {"type": "Point", "coordinates": [1.443620841297196, 43.61068212276859]}, "properties": {"commune": "Toulouse", "num_station": 58, "nb_bornettes": 25, "no": "4", "m_en_s_16_nov_07": "2007", "geo_point_2d": [43.61068212276859, 1.443620841297196], "mot_directeur": "CONCORDE (RUE DE LA CONCORDE)", "street": "RUE DE LA CONCORDE", "code_insee": "31555", "en_service": "oui", "nom": "CONCORDE -  ARCOLE", "nrivoli": "3105552256", "locations_2016": 56118}},{"type": "Feature", "geometry": {"type": "Point", "coordinates": [1.4435376351212, 43.61459652667697]}, "properties": {"commune": "Toulouse", "num_station": 93, "nb_bornettes": 15, "no": "57", "m_en_s_16_nov_07": "2008", "geo_point_2d": [43.61459652667697, 1.4435376351212], "mot_directeur": "PRINTEMPS (RUE DU PRINTEMPS)", "street": "RUE DU PRINTEMPS", "code_insee": "31555", "en_service": "oui", "nom": "PRINTEMPS - INGRES", "nrivoli": "3105557140", "locations_2016": 18599}},{"type": "Feature", "geometry": {"type": "Point", "coordinates": [1.430243232371765, 43.613458969203634]}, "properties": {"commune": "Toulouse", "num_station": 122, "nb_bornettes": 20, "no": "57", "m_en_s_16_nov_07": "2008", "geo_point_2d": [43.613458969203634, 1.430243232371765], "mot_directeur": "EMBOUCHURE (BD DE L EMBOUCHURE)", "street": "BD DE L EMBOUCHURE", "code_insee": "31555", "en_service": "oui", "nom": "EMBOUCHURE -  HAEDENS", "nrivoli": "3105552952", "locations_2016": 13678}},{"type": "Feature", "geometry": {"type": "Point", "coordinates": [1.419612926698242, 43.60997859625793]}, "properties": {"commune": "Toulouse", "num_station": 119, "nb_bornettes": 24, "no": "129", "m_en_s_16_nov_07": "2008", "geo_point_2d": [43.60997859625793, 1.419612926698242], "mot_directeur": "BRIENNE (ALL DE BRIENNE)", "street": "ALL DE BRIENNE", "code_insee": "31555", "en_service": "oui", "nom": "CHAPOU", "nrivoli": "3105551424", "locations_2016": 24475}},{"type": "Feature", "geometry": {"type": "Point", "coordinates": [1.423862671181388, 43.60842611920062]}, "properties": {"commune": "Toulouse", "num_station": 106, "nb_bornettes": 15, "no": "99", "m_en_s_16_nov_07": "2008", "geo_point_2d": [43.60842611920062, 1.423862671181388], "mot_directeur": "BRIENNE (ALL DE BRIENNE)", "street": "ALL DE BRIENNE", "code_insee": "31555", "en_service": "oui", "nom": "BRIENNE  -  PASSERELLE", "nrivoli": "3105551424", "locations_2016": 20097}},{"type": "Feature", "geometry": {"type": "Point", "coordinates": [1.43391008374255, 43.59264357069798]}, "properties": {"commune": "Toulouse", "num_station": 70, "nb_bornettes": 18, "no": "5", "m_en_s_16_nov_07": "2008", "geo_point_2d": [43.59264357069798, 1.43391008374255], "mot_directeur": "CHEVAL (PL DU FER A CHEVAL)", "street": "PL DU FER A CHEVAL", "code_insee": "31555", "en_service": "oui", "nom": "PLACE DU FER A CHEVAL", "nrivoli": "3105553240", "locations_2016": 18744}},{"type": "Feature", "geometry": {"type": "Point", "coordinates": [1.428360556600613, 43.58545391027452]}, "properties": {"commune": "Toulouse", "num_station": 129, "nb_bornettes": 18, "no": "2", "m_en_s_16_nov_07": "2008", "geo_point_2d": [43.58545391027452, 1.428360556600613], "mot_directeur": "SEVERAC (BD DEODAT DE SEVERAC)", "street": "BD DEODAT DE SEVERAC", "code_insee": "31555", "en_service": "oui", "nom": "CROIX DE PIERRE - DEODAT DE SEVERAC", "nrivoli": "3105552600", "locations_2016": 19224}},{"type": "Feature", "geometry": {"type": "Point", "coordinates": [1.456804214846672, 43.6190127432319]}, "properties": {"commune": "Toulouse", "num_station": 134, "nb_bornettes": 20, "no": "8", "m_en_s_16_nov_07": "2008", "geo_point_2d": [43.6190127432319, 1.456804214846672], "mot_directeur": "BONNEFOY (ALL DE L EGLISE BONNEFOY)", "street": "ALL DE L EGLISE BONNEFOY", "code_insee": "31555", "en_service": "oui", "nom": "EGLISE BONNEFOY", "nrivoli": "3105552912", "locations_2016": 16169}},{"type": "Feature", "geometry": {"type": "Point", "coordinates": [1.453042493901773, 43.5935312039993]}, "properties": {"commune": "Toulouse", "num_station": 102, "nb_bornettes": 20, "no": "18", "m_en_s_16_nov_07": "2008", "geo_point_2d": [43.5935312039993, 1.453042493901773], "mot_directeur": "MISTRAL (ALL FREDERIC MISTRAL)", "street": "ALL FREDERIC MISTRAL", "code_insee": "31555", "en_service": "oui", "nom": "MISTRAL -  FLEURANCE", "nrivoli": "3105553584", "locations_2016": 16925}},{"type": "Feature", "geometry": {"type": "Point", "coordinates": [1.450724414255123, 43.60091011822928]}, "properties": {"commune": "Toulouse", "num_station": 99, "nb_bornettes": 20, "no": "5", "m_en_s_16_nov_07": "2008", "geo_point_2d": [43.60091011822928, 1.450724414255123], "mot_directeur": "ETIENNE (RUE DU REMPART ST ETIENNE)", "street": "RUE DU REMPART ST ETIENNE", "code_insee": "31555", "en_service": "oui", "nom": "METZ  - REMPART ST ETIENNE", "nrivoli": "3105557384", "locations_2016": 19637}},{"type": "Feature", "geometry": {"type": "Point", "coordinates": [1.418439927550584, 43.5955021268761]}, "properties": {"commune": "Toulouse", "num_station": 139, "nb_bornettes": 20, "no": "39", "m_en_s_16_nov_07": "2008", "geo_point_2d": [43.5955021268761, 1.418439927550584], "mot_directeur": "LOMBEZ (AV DE LOMBEZ)", "street": "AV DE LOMBEZ", "code_insee": "31555", "en_service": "oui", "nom": "BARRIERE DE LOMBEZ", "nrivoli": "3105555308", "locations_2016": 18986}},{"type": "Feature", "geometry": {"type": "Point", "coordinates": [1.424582630015671, 43.58787256081316]}, "properties": {"commune": "Toulouse", "num_station": 142, "nb_bornettes": 20, "no": "52", "m_en_s_16_nov_07": "2008", "geo_point_2d": [43.58787256081316, 1.424582630015671], "mot_directeur": "SEVERAC (BD DEODAT DE SEVERAC)", "street": "BD DEODAT DE SEVERAC", "code_insee": "31555", "en_service": "oui", "nom": "DEODAT DE SEVERAC", "nrivoli": "3105552600", "locations_2016": 9483}},{"type": "Feature", "geometry": {"type": "Point", "coordinates": [1.445305947191189, 43.59296443395939]}, "properties": {"commune": "Toulouse", "num_station": 68, "nb_bornettes": 18, "no": "3", "m_en_s_16_nov_07": "2008", "geo_point_2d": [43.59296443395939, 1.445305947191189], "mot_directeur": "GUESDE (ALL JULES GUESDE)", "street": "ALL JULES GUESDE", "code_insee": "31555", "en_service": "oui", "nom": "GUESDE TRENTE SIX  PONTS", "nrivoli": "3105554812", "locations_2016": 53852}},{"type": "Feature", "geometry": {"type": "Point", "coordinates": [1.481748495217635, 43.60596153750452]}, "properties": {"commune": "Toulouse", "num_station": 182, "nb_bornettes": 20, "no": "158", "m_en_s_16_nov_07": "2008", "geo_point_2d": [43.60596153750452, 1.481748495217635], "mot_directeur": "CHAUBET (AV JEAN CHAUBET)", "street": "AV JEAN CHAUBET", "code_insee": "31555", "en_service": "oui", "nom": "CHAUBET", "nrivoli": "3105554540", "locations_2016": 3214}},{"type": "Feature", "geometry": {"type": "Point", "coordinates": [1.427558108655031, 43.58429324304835]}, "properties": {"commune": "Toulouse", "num_station": 188, "nb_bornettes": 18, "no": "121", "m_en_s_16_nov_07": "2008", "geo_point_2d": [43.58429324304835, 1.427558108655031], "mot_directeur": "MURET (AV DE MURET)", "street": "AV DE MURET", "code_insee": "31555", "en_service": "oui", "nom": "MURET LAFAGE", "nrivoli": "3105556160", "locations_2016": 11577}},{"type": "Feature", "geometry": {"type": "Point", "coordinates": [1.475853624745652, 43.5816739013387]}, "properties": {"commune": "Toulouse", "num_station": 202, "nb_bornettes": 17, "no": "165", "m_en_s_16_nov_07": "2008", "geo_point_2d": [43.5816739013387, 1.475853624745652], "mot_directeur": "EXUPERY (AV ANTOINE DE ST EXUPERY)", "street": "AV ANTOINE DE ST EXUPERY", "code_insee": "31555", "en_service": "oui", "nom": "SAINT EXUPERIY ECOLE COURREGE", "nrivoli": "3105557772", "locations_2016": 2853}},{"type": "Feature", "geometry": {"type": "Point", "coordinates": [1.475006685997372, 43.58587852179781]}, "properties": {"commune": "Toulouse", "num_station": 205, "nb_bornettes": 17, "no": "58", "m_en_s_16_nov_07": "2008", "geo_point_2d": [43.58587852179781, 1.475006685997372], "mot_directeur": "COTTAGES (AV DES COTTAGES)", "street": "AV DES COTTAGES", "code_insee": "31555", "en_service": "oui", "nom": "COTTAGES RIEUX", "nrivoli": "3105552340", "locations_2016": 1691}},{"type": "Feature", "geometry": {"type": "Point", "coordinates": [1.463184359345778, 43.586858025098415]}, "properties": {"commune": "Toulouse", "num_station": 204, "nb_bornettes": 18, "no": "1", "m_en_s_16_nov_07": "2008", "geo_point_2d": [43.586858025098415, 1.463184359345778], "mot_directeur": "ARNAUD (PL ROGER ARNAUD)", "street": "PL ROGER ARNAUD", "code_insee": "31555", "en_service": "oui", "nom": "PL ROGER ARNAUD", "nrivoli": "3105557568", "locations_2016": 15185}},{"type": "Feature", "geometry": {"type": "Point", "coordinates": [1.481948179118739, 43.583354906511474]}, "properties": {"commune": "Toulouse", "num_station": 207, "nb_bornettes": 17, "no": "25", "m_en_s_16_nov_07": "2008", "geo_point_2d": [43.583354906511474, 1.481948179118739], "mot_directeur": "AUDE (RUE DE L AUDE)", "street": "RUE DE L AUDE", "code_insee": "31555", "en_service": "oui", "nom": "CHRIST ROI", "nrivoli": "3105550616", "locations_2016": 655}},{"type": "Feature", "geometry": {"type": "Point", "coordinates": [1.473557439522019, 43.60084008562664]}, "properties": {"commune": "Toulouse", "num_station": 214, "nb_bornettes": 17, "no": "48", "m_en_s_16_nov_07": "2008", "geo_point_2d": [43.60084008562664, 1.473557439522019], "mot_directeur": "CASTRES (AV DE CASTRES)", "street": "AV DE CASTRES", "code_insee": "31555", "en_service": "oui", "nom": "CASTRES ACHIARY", "nrivoli": "3105551772", "locations_2016": 1380}},{"type": "Feature", "geometry": {"type": "Point", "coordinates": [1.466547210887484, 43.6297737136156]}, "properties": {"commune": "Toulouse", "num_station": 217, "nb_bornettes": 18, "no": "42", "m_en_s_16_nov_07": "2008", "geo_point_2d": [43.6297737136156, 1.466547210887484], "mot_directeur": "AMOUROUX (CHE AMOUROUX)", "street": "CHE AMOUROUX", "code_insee": "31555", "en_service": "oui", "nom": "AMOUROUX SAINT TROPEZ", "nrivoli": "3105550260", "locations_2016": 2493}},{"type": "Feature", "geometry": {"type": "Point", "coordinates": [1.458663632679737, 43.56651946927868]}, "properties": {"commune": "Toulouse", "num_station": 233, "nb_bornettes": 20, "no": "105", "m_en_s_16_nov_07": "2008", "geo_point_2d": [43.56651946927868, 1.458663632679737], "mot_directeur": "NARBONNE (RTE DE NARBONNE)", "street": "RTE DE NARBONNE", "code_insee": "31555", "en_service": "oui", "nom": "NARBONNE SAHUQUE", "nrivoli": "3105556196", "locations_2016": 11124}},{"type": "Feature", "geometry": {"type": "Point", "coordinates": [1.45634916182147, 43.56920620937197]}, "properties": {"commune": "Toulouse", "num_station": 232, "nb_bornettes": 18, "no": "64", "m_en_s_16_nov_07": "2008", "geo_point_2d": [43.56920620937197, 1.45634916182147], "mot_directeur": "NARBONNE (RTE DE NARBONNE)", "street": "RTE DE NARBONNE", "code_insee": "31555", "en_service": "oui", "nom": "NARBONNE MIROUSE", "nrivoli": "3105556196", "locations_2016": 11081}},{"type": "Feature", "geometry": {"type": "Point", "coordinates": [1.463152607112551, 43.63269301244163]}, "properties": {"commune": "Toulouse", "num_station": 169, "nb_bornettes": 18, "no": "78", "m_en_s_16_nov_07": "2008", "geo_point_2d": [43.63269301244163, 1.463152607112551], "mot_directeur": "ALBI (RTE D ALBI)", "street": "RTE D ALBI", "code_insee": "31555", "en_service": "oui", "nom": "ALBI AVRANCHES", "nrivoli": "3105550124", "locations_2016": 4571}},{"type": "Feature", "geometry": {"type": "Point", "coordinates": [1.435458878415498, 43.633489621653396]}, "properties": {"commune": "Toulouse", "num_station": 235, "nb_bornettes": 20, "no": "8", "m_en_s_16_nov_07": "2008", "geo_point_2d": [43.633489621653396, 1.435458878415498], "mot_directeur": "VERLAINE (RUE PAUL VERLAINE)", "street": "RUE PAUL VERLAINE", "code_insee": "31555", "en_service": "oui", "nom": "METRO LA VACHE", "nrivoli": "3105556656", "locations_2016": 5006}},{"type": "Feature", "geometry": {"type": "Point", "coordinates": [1.403756451409072, 43.59731314731094]}, "properties": {"commune": "Toulouse", "num_station": 236, "nb_bornettes": 20, "no": "1", "m_en_s_16_nov_07": "2008", "geo_point_2d": [43.59731314731094, 1.403756451409072], "mot_directeur": "LEMIRE (RUE DE L ABBE JULES LEMIRE)", "street": "RUE DE L ABBE JULES LEMIRE", "code_insee": "31555", "en_service": "oui", "nom": "TOEC ABBE LEMIRE", "nrivoli": "3105554821", "locations_2016": 3724}},{"type": "Feature", "geometry": {"type": "Point", "coordinates": [1.473082525654605, 43.579337000868954]}, "properties": {"commune": "Toulouse", "num_station": 238, "nb_bornettes": 17, "no": "50", "m_en_s_16_nov_07": "2008", "geo_point_2d": [43.579337000868954, 1.473082525654605], "mot_directeur": "BUTTE (CHE DE LA BUTTE)", "street": "CHE DE LA BUTTE", "code_insee": "31555", "en_service": "oui", "nom": "BUTTE HERBETTES", "nrivoli": "3105551468", "locations_2016": 2654}},{"type": "Feature", "geometry": {"type": "Point", "coordinates": [1.408388264250025, 43.617008875586805]}, "properties": {"commune": "Toulouse", "num_station": 240, "nb_bornettes": 20, "no": "112", "m_en_s_16_nov_07": "2008", "geo_point_2d": [43.617008875586805, 1.408388264250025], "mot_directeur": "BLAGNAC (RTE DE BLAGNAC)", "street": "RTE DE BLAGNAC", "code_insee": "31555", "en_service": "oui", "nom": "JOB BLAGNAC", "nrivoli": "3105551180", "locations_2016": 8963}},{"type": "Feature", "geometry": {"type": "Point", "coordinates": [1.44383583377536, 43.63578754512965]}, "properties": {"commune": "Toulouse", "num_station": 244, "nb_bornettes": 18, "no": "93", "m_en_s_16_nov_07": "2008", "geo_point_2d": [43.63578754512965, 1.44383583377536], "mot_directeur": "RENAN (RUE ERNEST RENAN)", "street": "RUE ERNEST RENAN", "code_insee": "31555", "en_service": "oui", "nom": "RENAN VITRY", "nrivoli": "3105553044", "locations_2016": 2773}},{"type": "Feature", "geometry": {"type": "Point", "coordinates": [1.438998300664665, 43.63635990231467]}, "properties": {"commune": "Toulouse", "num_station": 247, "nb_bornettes": 20, "no": "112", "m_en_s_16_nov_07": "2008", "geo_point_2d": [43.63635990231467, 1.438998300664665], "mot_directeur": "LAUNAGUET (RTE DE LAUNAGUET)", "street": "RTE DE LAUNAGUET", "code_insee": "31555", "en_service": "oui", "nom": "LAUNAGUET AUDIBERT", "nrivoli": "3105555096", "locations_2016": 2897}},{"type": "Feature", "geometry": {"type": "Point", "coordinates": [1.424238268800916, 43.575108621734636]}, "properties": {"commune": "Toulouse", "num_station": 241, "nb_bornettes": 20, "no": "57", "m_en_s_16_nov_07": "2008", "geo_point_2d": [43.575108621734636, 1.424238268800916], "mot_directeur": "ESPAGNE (RTE D ESPAGNE)", "street": "RTE D ESPAGNE", "code_insee": "31555", "en_service": "oui", "nom": "ESPAGNE CHARPENTIER", "nrivoli": "3105553064", "locations_2016": 9016}},{"type": "Feature", "geometry": {"type": "Point", "coordinates": [1.483975422361297, 43.596435753141]}, "properties": {"commune": "Toulouse", "num_station": 256, "nb_bornettes": 0, "nom": "ROTONDE", "m_en_s_16_nov_07": "2013", "geo_point_2d": [43.596435753141, 1.483975422361297], "mot_directeur": "CASTRES (AV DE CASTRES)", "street": "AV DE CASTRES", "code_insee": "31555", "en_service": "oui", "locations_2016": 1254}},{"type": "Feature", "geometry": {"type": "Point", "coordinates": [1.440075819655087, 43.57693047598502]}, "properties": {"commune": "Toulouse", "num_station": 255, "nb_bornettes": 0, "nom": "SELLIER", "m_en_s_16_nov_07": "2013", "geo_point_2d": [43.57693047598502, 1.440075819655087], "mot_directeur": "SELLIER (ALL HENRI SELLIER)", "street": "ALL HENRI SELLIER", "code_insee": "31555", "en_service": "oui", "locations_2016": 3378}},{"type": "Feature", "geometry": {"type": "Point", "coordinates": [1.398714601902059, 43.584442279611864]}, "properties": {"commune": "Toulouse", "num_station": 263, "nb_bornettes": 0, "nom": "PLACE JEAN BAYLET", "m_en_s_16_nov_07": "2013", "geo_point_2d": [43.584442279611864, 1.398714601902059], "mot_directeur": "BAYLET (AV JEAN BAYLET)", "street": "AV JEAN BAYLET", "code_insee": "31555", "en_service": "oui", "locations_2016": 2403}},{"type": "Feature", "geometry": {"type": "Point", "coordinates": [1.377265720307529, 43.58544180009329]}, "properties": {"commune": "Toulouse", "num_station": 277, "nb_bornettes": 0, "nom": "ZAMENHOF", "m_en_s_16_nov_07": "2013", "geo_point_2d": [43.58544180009329, 1.377265720307529], "mot_directeur": "ZAMENHOF (ALL DU DR LEJZER L ZAMENHOF)", "street": "ALL DU DR LEJZER L ZAMENHOF", "code_insee": "31555", "en_service": "oui", "locations_2016": 1275}},{"type": "Feature", "geometry": {"type": "Point", "coordinates": [1.397194064057617, 43.60850426307545]}, "properties": {"commune": "Toulouse", "num_station": 268, "nb_bornettes": 0, "nom": "BAYLAC", "m_en_s_16_nov_07": "2014", "geo_point_2d": [43.60850426307545, 1.397194064057617], "mot_directeur": "ROMAINES (AV DES ARENES ROMAINES)", "street": "AV DES ARENES ROMAINES", "code_insee": "31555", "en_service": "oui", "nrivoli": "3105550448", "locations_2016": 4874}},{"type": "Feature", "geometry": {"type": "Point", "coordinates": [1.452080304476543, 43.60130697471183]}, "properties": {"commune": "Toulouse", "num_station": 23, "nb_bornettes": 24, "no": "6", "m_en_s_16_nov_07": "2007", "geo_point_2d": [43.60130697471183, 1.452080304476543], "mot_directeur": "CARNOT (BD LAZARE CARNOT)", "street": "BD LAZARE CARNOT", "code_insee": "31555", "en_service": "oui", "nom": "MONUMENT AUX COMBATTANTS", "nrivoli": "3105555132", "locations_2016": 31390}},{"type": "Feature", "geometry": {"type": "Point", "coordinates": [1.440398920057608, 43.59904509410674]}, "properties": {"commune": "Toulouse", "num_station": 27, "nb_bornettes": 22, "no": "122B", "m_en_s_16_nov_07": "2007", "geo_point_2d": [43.59904509410674, 1.440398920057608], "mot_directeur": "TOUNIS (QU DE TOUNIS)", "street": "QU DE TOUNIS", "code_insee": "31555", "en_service": "oui", "nom": "QUAI DE TOUNIS", "nrivoli": "3105558520", "locations_2016": 17311}},{"type": "Feature", "geometry": {"type": "Point", "coordinates": [1.450928343047422, 43.596457082787545]}, "properties": {"commune": "Toulouse", "num_station": 66, "nb_bornettes": 23, "no": "0", "m_en_s_16_nov_07": "2007", "geo_point_2d": [43.596457082787545, 1.450928343047422], "mot_directeur": "MAI 1945 (RUE DU HUIT MAI 1945)", "street": "RUE DU HUIT MAI 1945", "code_insee": "31555", "en_service": "oui", "nom": "JARDIN ROYAL", "nrivoli": "3105554272", "locations_2016": 10366}},{"type": "Feature", "geometry": {"type": "Point", "coordinates": [1.432417416612675, 43.6054133517932]}, "properties": {"commune": "Toulouse", "num_station": 84, "nb_bornettes": 24, "no": "19T", "m_en_s_16_nov_07": "2008", "geo_point_2d": [43.6054133517932, 1.432417416612675], "mot_directeur": "BRIENNE (ALL DE BRIENNE)", "street": "ALL DE BRIENNE", "code_insee": "31555", "en_service": "oui", "nom": "BRIENNE -  MANUFACTURE", "nrivoli": "3105551424", "locations_2016": 42133}},{"type": "Feature", "geometry": {"type": "Point", "coordinates": [1.437314133009276, 43.605078252950946]}, "properties": {"commune": "Toulouse", "num_station": 29, "nb_bornettes": 19, "no": "31", "m_en_s_16_nov_07": "2007", "geo_point_2d": [43.605078252950946, 1.437314133009276], "mot_directeur": "VALADE (RUE VALADE)", "street": "RUE VALADE", "code_insee": "31555", "en_service": "oui", "nom": "VALADE", "nrivoli": "3105558676", "locations_2016": 46812}},{"type": "Feature", "geometry": {"type": "Point", "coordinates": [1.44360465961975, 43.608609811148234]}, "properties": {"commune": "Toulouse", "num_station": 33, "nb_bornettes": 15, "no": "11", "m_en_s_16_nov_07": "2007", "geo_point_2d": [43.608609811148234, 1.44360465961975], "mot_directeur": "BERALDI (RUE HENRI BERALDI)", "street": "RUE HENRI BERALDI", "code_insee": "31555", "en_service": "oui", "nom": "BERALDI", "nrivoli": "3105554120", "locations_2016": 11863}},{"type": "Feature", "geometry": {"type": "Point", "coordinates": [1.439462417270893, 43.607390031617534]}, "properties": {"commune": "Toulouse", "num_station": 31, "nb_bornettes": 17, "no": "7", "m_en_s_16_nov_07": "2007", "geo_point_2d": [43.607390031617534, 1.439462417270893], "mot_directeur": "SALENQUES (RUE DES SALENQUES)", "street": "RUE DES SALENQUES", "code_insee": "31555", "en_service": "oui", "nom": "SALENQUES", "nrivoli": "3105558100", "locations_2016": 25797}},{"type": "Feature", "geometry": {"type": "Point", "coordinates": [1.434133556962295, 43.601047479959306]}, "properties": {"commune": "Toulouse", "num_station": 79, "nb_bornettes": 19, "no": "1", "m_en_s_16_nov_07": "2007", "geo_point_2d": [43.601047479959306, 1.434133556962295], "mot_directeur": "LANGE (PL LANGE)", "street": "PL LANGE", "code_insee": "31555", "en_service": "oui", "nom": "PLACE LANGE", "nrivoli": "3105554996", "locations_2016": 8763}},{"type": "Feature", "geometry": {"type": "Point", "coordinates": [1.444653925856657, 43.60743620096081]}, "properties": {"commune": "Toulouse", "num_station": 14, "nb_bornettes": 20, "no": "26", "m_en_s_16_nov_07": "2007", "geo_point_2d": [43.60743620096081, 1.444653925856657], "mot_directeur": "PERIGORD (RUE DE PERIGORD)", "street": "RUE DE PERIGORD", "code_insee": "31555", "en_service": "oui", "nom": "PERIGORD", "nrivoli": "3105556756", "locations_2016": 17684}},{"type": "Feature", "geometry": {"type": "Point", "coordinates": [1.436667836046304, 43.61105686790535]}, "properties": {"commune": "Toulouse", "num_station": 89, "nb_bornettes": 23, "no": "1", "m_en_s_16_nov_07": "2008", "geo_point_2d": [43.61105686790535, 1.436667836046304], "mot_directeur": "CAFFARELLI (ESP COMPANS CAFFARELLI)", "street": "ESP COMPANS CAFFARELLI", "code_insee": "31555", "en_service": "oui", "nom": "ESP COMPANS CAFFARELLI", "nrivoli": "3105552251", "locations_2016": 34229}},{"type": "Feature", "geometry": {"type": "Point", "coordinates": [1.45148809225847, 43.613876865020266]}, "properties": {"commune": "Toulouse", "num_station": 94, "nb_bornettes": 20, "no": "73", "m_en_s_16_nov_07": "2008", "geo_point_2d": [43.613876865020266, 1.45148809225847], "mot_directeur": "SEMARD (BD PIERRE SEMARD)", "street": "BD PIERRE SEMARD", "code_insee": "31555", "en_service": "oui", "nom": "SEMARD -  GARE ROUTIERE", "nrivoli": "3105556916", "locations_2016": 24056}},{"type": "Feature", "geometry": {"type": "Point", "coordinates": [1.455280025548708, 43.609835698331416]}, "properties": {"commune": "Toulouse", "num_station": 96, "nb_bornettes": 25, "no": "1", "m_en_s_16_nov_07": "2008", "geo_point_2d": [43.609835698331416, 1.455280025548708], "mot_directeur": "DELMAS (ALL JACQUES CHABAN DELMAS)", "street": "ALL JACQUES CHABAN DELMAS", "code_insee": "31555", "en_service": "oui", "nom": "MEDIATHEQUE", "nrivoli": "3105554399", "locations_2016": 36114}},{"type": "Feature", "geometry": {"type": "Point", "coordinates": [1.454910473736162, 43.60620402414023]}, "properties": {"commune": "Toulouse", "num_station": 64, "nb_bornettes": 18, "no": "30", "m_en_s_16_nov_07": "2008", "geo_point_2d": [43.60620402414023, 1.454910473736162], "mot_directeur": "PERI (RUE GABRIEL PERI)", "street": "RUE GABRIEL PERI", "code_insee": "31555", "en_service": "oui", "nom": "PERI -  MERCADIER", "nrivoli": "3105553660", "locations_2016": 18230}},{"type": "Feature", "geometry": {"type": "Point", "coordinates": [1.445404974778521, 43.60418432874575]}, "properties": {"commune": "Toulouse", "num_station": 1, "nb_bornettes": 20, "no": "12", "m_en_s_16_nov_07": "2007", "geo_point_2d": [43.60418432874575, 1.445404974778521], "mot_directeur": "HUILE (RUE DU POIDS DE L HUILE)", "street": "RUE DU POIDS DE L HUILE", "code_insee": "31555", "en_service": "oui", "nom": "POIDS DE L'HUILE", "nrivoli": "3105556972", "locations_2016": 44300}},{"type": "Feature", "geometry": {"type": "Point", "coordinates": [1.428712409642751, 43.59751509289101]}, "properties": {"commune": "Toulouse", "num_station": 105, "nb_bornettes": 17, "no": "12", "m_en_s_16_nov_07": "2008", "geo_point_2d": [43.59751509289101, 1.428712409642751], "mot_directeur": "BILLIERES (AV ETIENNE BILLIERES)", "street": "AV ETIENNE BILLIERES", "code_insee": "31555", "en_service": "oui", "nom": "BILLIERES  -  CHAMPETRE", "nrivoli": "3105553116", "locations_2016": 19595}},{"type": "Feature", "geometry": {"type": "Point", "coordinates": [1.438255132127178, 43.61262520927727]}, "properties": {"commune": "Toulouse", "num_station": 121, "nb_bornettes": 20, "no": "33", "m_en_s_16_nov_07": "2008", "geo_point_2d": [43.61262520927727, 1.438255132127178], "mot_directeur": "SERRES (AV HONORE SERRES)", "street": "AV HONORE SERRES", "code_insee": "31555", "en_service": "oui", "nom": "SERRES -  ARNAUD BERNARD", "nrivoli": "3105554256", "locations_2016": 17693}},{"type": "Feature", "geometry": {"type": "Point", "coordinates": [1.446443101507884, 43.58818225405043]}, "properties": {"commune": "Toulouse", "num_station": 116, "nb_bornettes": 15, "no": "50", "m_en_s_16_nov_07": "2008", "geo_point_2d": [43.58818225405043, 1.446443101507884], "mot_directeur": "MICHEL (GRANDE-RUE SAINT MICHEL)", "street": "GRANDE-RUE SAINT MICHEL", "code_insee": "31555", "en_service": "oui", "nom": "ST MICHEL -  NOTRE DAME", "nrivoli": "3105557916", "locations_2016": 19568}},{"type": "Feature", "geometry": {"type": "Point", "coordinates": [1.450652745717901, 43.588626372491916]}, "properties": {"commune": "Toulouse", "num_station": 118, "nb_bornettes": 17, "no": "2", "m_en_s_16_nov_07": "2008", "geo_point_2d": [43.588626372491916, 1.450652745717901], "mot_directeur": "BUSCA (PL DU BUSCA)", "street": "PL DU BUSCA", "code_insee": "31555", "en_service": "oui", "nom": "PLACE DU BUSCA", "nrivoli": "3105551464", "locations_2016": 18533}},{"type": "Feature", "geometry": {"type": "Point", "coordinates": [1.455951007426744, 43.589709240949524]}, "properties": {"commune": "Toulouse", "num_station": 127, "nb_bornettes": 16, "no": "1", "m_en_s_16_nov_07": "2008", "geo_point_2d": [43.589709240949524, 1.455951007426744], "mot_directeur": "DAVID (RUE BEGUE DAVID)", "street": "RUE BEGUE DAVID", "code_insee": "31555", "en_service": "oui", "nom": "DEMOISELLES - BEGUE", "nrivoli": "3105550980", "locations_2016": 13516}},{"type": "Feature", "geometry": {"type": "Point", "coordinates": [1.429991245708002, 43.59351511032752]}, "properties": {"commune": "Toulouse", "num_station": 37, "nb_bornettes": 18, "no": "38", "m_en_s_16_nov_07": "2008", "geo_point_2d": [43.59351511032752, 1.429991245708002], "mot_directeur": "LUCIE (RUE SAINTE LUCIE)", "street": "RUE SAINTE LUCIE", "code_insee": "31555", "en_service": "oui", "nom": "SAINTE LUCIE", "nrivoli": "3105558040", "locations_2016": 11609}},{"type": "Feature", "geometry": {"type": "Point", "coordinates": [1.417903773571825, 43.58734724910386]}, "properties": {"commune": "Toulouse", "num_station": 141, "nb_bornettes": 20, "no": "239", "m_en_s_16_nov_07": "2008", "geo_point_2d": [43.58734724910386, 1.417903773571825], "mot_directeur": "DESBALS (RUE HENRI DESBALS)", "street": "RUE HENRI DESBALS", "code_insee": "31555", "en_service": "oui", "nom": "METRO FONTAINE LESTANG", "nrivoli": "3105554140", "locations_2016": 4767}},{"type": "Feature", "geometry": {"type": "Point", "coordinates": [1.425012908972602, 43.613895945061365]}, "properties": {"commune": "Toulouse", "num_station": 145, "nb_bornettes": 20, "no": "27", "m_en_s_16_nov_07": "2008", "geo_point_2d": [43.613895945061365, 1.425012908972602], "mot_directeur": "GOUNOD (RUE CHARLES GOUNOD)", "street": "RUE CHARLES GOUNOD", "code_insee": "31555", "en_service": "oui", "nom": "GOUNOD GARROS", "nrivoli": "3105551940", "locations_2016": 23324}},{"type": "Feature", "geometry": {"type": "Point", "coordinates": [1.444106480297866, 43.616565072349076]}, "properties": {"commune": "Toulouse", "num_station": 148, "nb_bornettes": 19, "no": "0000", "m_en_s_16_nov_07": "2008", "geo_point_2d": [43.616565072349076, 1.444106480297866], "mot_directeur": "COLLIGNON (AV FRANCOIS COLLIGNON)", "street": "AV FRANCOIS COLLIGNON", "code_insee": "31555", "en_service": "oui", "nom": "COLLIGNON", "nrivoli": "3105552178", "locations_2016": 15988}},{"type": "Feature", "geometry": {"type": "Point", "coordinates": [1.450260917807729, 43.578605700967266]}, "properties": {"commune": "Toulouse", "num_station": 159, "nb_bornettes": 20, "no": "96", "m_en_s_16_nov_07": "2008", "geo_point_2d": [43.578605700967266, 1.450260917807729], "mot_directeur": "JULIEN (AV JULES JULIEN)", "street": "AV JULES JULIEN", "code_insee": "31555", "en_service": "oui", "nom": "JULES JULIEN DEVIC", "nrivoli": "3105554816", "locations_2016": 13686}},{"type": "Feature", "geometry": {"type": "Point", "coordinates": [1.454862784503226, 43.58028325669615]}, "properties": {"commune": "Toulouse", "num_station": 162, "nb_bornettes": 17, "no": "49", "m_en_s_16_nov_07": "2008", "geo_point_2d": [43.58028325669615, 1.454862784503226], "mot_directeur": "ITALIE (AV D ITALIE)", "street": "AV D ITALIE", "code_insee": "31555", "en_service": "oui", "nom": "ITALIE", "nrivoli": "3105554364", "locations_2016": 5806}},{"type": "Feature", "geometry": {"type": "Point", "coordinates": [1.458721728603836, 43.623101362692644]}, "properties": {"commune": "Toulouse", "num_station": 135, "nb_bornettes": 17, "no": "183", "m_en_s_16_nov_07": "2008", "geo_point_2d": [43.623101362692644, 1.458721728603836], "mot_directeur": "BONNEFOY (RUE DU FAUBOURG BONNEFOY)", "street": "RUE DU FAUBOURG BONNEFOY", "code_insee": "31555", "en_service": "oui", "nom": "BONNEFOY LEMAITRE", "nrivoli": "3105553204", "locations_2016": 7410}},{"type": "Feature", "geometry": {"type": "Point", "coordinates": [1.452285071755725, 43.63986704989843]}, "properties": {"commune": "Toulouse", "num_station": 175, "nb_bornettes": 30, "no": "00", "m_en_s_16_nov_07": "2008", "geo_point_2d": [43.63986704989843, 1.452285071755725], "mot_directeur": "MAUNOURY (AV MAURICE BOURGES MAUNOURY)", "street": "AV MAURICE BOURGES MAUNOURY", "code_insee": "31555", "en_service": "oui", "nom": "METRO BOURGES MAUNOURY", "nrivoli": "3105555789", "locations_2016": 8090}},{"type": "Feature", "geometry": {"type": "Point", "coordinates": [1.450737754621806, 43.63321805232238]}, "properties": {"commune": "Toulouse", "num_station": 173, "nb_bornettes": 20, "no": "25", "m_en_s_16_nov_07": "2008", "geo_point_2d": [43.63321805232238, 1.450737754621806], "mot_directeur": "MAUNOURY (AV MAURICE BOURGES MAUNOURY)", "street": "AV MAURICE BOURGES MAUNOURY", "code_insee": "31555", "en_service": "oui", "nom": "BOURGES MAUNOURY SEGLA", "nrivoli": "3105555789", "locations_2016": 6453}},{"type": "Feature", "geometry": {"type": "Point", "coordinates": [1.454679016117745, 43.624106813350316]}, "properties": {"commune": "Toulouse", "num_station": 167, "nb_bornettes": 18, "no": "98", "m_en_s_16_nov_07": "2008", "geo_point_2d": [43.624106813350316, 1.454679016117745], "mot_directeur": "LAPUJADE (CHE DE LAPUJADE)", "street": "CHE DE LAPUJADE", "code_insee": "31555", "en_service": "oui", "nom": "LAPUJADE FLANDRES", "nrivoli": "3105555028", "locations_2016": 8048}},{"type": "Feature", "geometry": {"type": "Point", "coordinates": [1.420167024865603, 43.597995237767186]}, "properties": {"commune": "Toulouse", "num_station": 138, "nb_bornettes": 20, "no": "2", "m_en_s_16_nov_07": "2008", "geo_point_2d": [43.597995237767186, 1.420167024865603], "mot_directeur": "BAYONNE (BRE DE BAYONNE)", "street": "BRE DE BAYONNE", "code_insee": "31555", "en_service": "oui", "nom": "BARRIERE DE BAYONNE", "nrivoli": "3105550924", "locations_2016": 17457}},{"type": "Feature", "geometry": {"type": "Point", "coordinates": [1.410894875225018, 43.579246690338906]},